[
  {
    "community_leader_id": "aa9ae4f32f174157a242b36860e033d6",
    "shop_name": "aa9ae4f32f174157a242b36860e033d6",
    "shop_address": "Paraguay   764",
    "shop_lat": -34.59763900733354,
    "shop_lng": -58.37780073041395,
    "nearest_supermarket": {
      "id": "31440",
      "name": "Supermercados DIA",
      "address": "Paraguay 788",
      "lat": -34.59773,
      "lng": -58.378017,
      "city": "Microcentro",
      "province": "CABA"
    },
    "distance_km": 0.022231290832919307,
    "pedidos_en_direccion": 18,
    "total_pedidos_lider": 18
  },
  {
    "community_leader_id": "794e35e5b6704e7e938a030c3c1cb8aa",
    "shop_name": "794e35e5b6704e7e938a030c3c1cb8aa",
    "shop_address": "Av. Tte. Gral. Juan Domingo Perón 3870 ",
    "shop_lat": -34.66611043958044,
    "shop_lng": -58.41625941348743,
    "nearest_supermarket": {
      "id": "37364",
      "name": "Supermercados DIA",
      "address": "Presidente Teniente General Juan Domingo Peron 3833",
      "lat": -34.66615,
      "lng": -58.4158,
      "city": "Valentín Alsina",
      "province": "Buenos Aires"
    },
    "distance_km": 0.04224560688920123,
    "pedidos_en_direccion": 137,
    "total_pedidos_lider": 137
  },
  {
    "community_leader_id": "66c7d6b84161491b95836882a8855f31",
    "shop_name": "66c7d6b84161491b95836882a8855f31",
    "shop_address": "California 1945",
    "shop_lat": -34.647257576122705,
    "shop_lng": -58.37594655640965,
    "nearest_supermarket": {
      "id": "31370",
      "name": "Supermercados DIA",
      "address": "California 1995",
      "lat": -34.647377,
      "lng": -58.376385,
      "city": "Buenos Aires",
      "province": "CABA"
    },
    "distance_km": 0.04224845337261828,
    "pedidos_en_direccion": 507,
    "total_pedidos_lider": 507
  },
  {
    "community_leader_id": "eead72c7437a40c1bd72ffbd594467a3",
    "shop_name": "eead72c7437a40c1bd72ffbd594467a3",
    "shop_address": "California 1945",
    "shop_lat": -34.58316664585446,
    "shop_lng": -58.37510634031773,
    "nearest_supermarket": {
      "id": "27404",
      "name": "Coto",
      "address": "Antartida Argentina 1160",
      "lat": -34.583622,
      "lng": -58.375286,
      "city": "Buenos Aires",
      "province": "CABA"
    },
    "distance_km": 0.05323740240173349,
    "pedidos_en_direccion": 6,
    "total_pedidos_lider": 6
  },
  {
    "community_leader_id": "d95b9e90ae8342cf81d2a28c5768727f",
    "shop_name": "d95b9e90ae8342cf81d2a28c5768727f",
    "shop_address": "Av. Dr. Ricardo Balbín 1917 ",
    "shop_lat": -34.547315698424065,
    "shop_lng": -58.71736699110349,
    "nearest_supermarket": {
      "id": "35134",
      "name": "Supermercados DIA",
      "address": "Av Balbin 1727",
      "lat": -34.54711,
      "lng": -58.71674,
      "city": "San Miguel (Buenos Aires)",
      "province": "Buenos Aires"
    },
    "distance_km": 0.06181164496291204,
    "pedidos_en_direccion": 2,
    "total_pedidos_lider": 2
  },
  {
    "community_leader_id": "54c3e440367343feb541e319cf8841ca",
    "shop_name": "54c3e440367343feb541e319cf8841ca",
    "shop_address": "Sarmiento 4224 ",
    "shop_lat": -34.604334739108616,
    "shop_lng": -58.42468508217143,
    "nearest_supermarket": {
      "id": "38751",
      "name": "Disco",
      "address": "Gascón 649",
      "lat": -34.60404,
      "lng": -58.42408,
      "city": "Buenos Aires",
      "province": "CABA"
    },
    "distance_km": 0.06435055255158047,
    "pedidos_en_direccion": 1,
    "total_pedidos_lider": 1
  },
  {
    "community_leader_id": "5d7d5a1295854dbbba8b510dc74d768f",
    "shop_name": "5d7d5a1295854dbbba8b510dc74d768f",
    "shop_address": "Dante 3217 ",
    "shop_lat": -34.58340254493539,
    "shop_lng": -58.65852405340167,
    "nearest_supermarket": {
      "id": "25536",
      "name": "Supermercados DIA",
      "address": "Villegas Esquina Cañuelas",
      "lat": -34.582783,
      "lng": -58.65853,
      "city": "William Morris",
      "province": "Buenos Aires"
    },
    "distance_km": 0.0688924046066374,
    "pedidos_en_direccion": 2,
    "total_pedidos_lider": 2
  },
  {
    "community_leader_id": "0e9777db4df040ef854973ca64247a97",
    "shop_name": "0e9777db4df040ef854973ca64247a97",
    "shop_address": "Paunero 3761 ",
    "shop_lat": -34.52574856679319,
    "shop_lng": -58.7329843878849,
    "nearest_supermarket": {
      "id": "40870",
      "name": "Supermercados DIA",
      "address": "Av Peron 3748",
      "lat": -34.526318,
      "lng": -58.73345,
      "city": "José C. Paz",
      "province": "Buenos Aires"
    },
    "distance_km": 0.07634530992725092,
    "pedidos_en_direccion": 1,
    "total_pedidos_lider": 1
  },
  {
    "community_leader_id": "5ab65feec66440b58cd30c9dfc4d850d",
    "shop_name": "5ab65feec66440b58cd30c9dfc4d850d",
    "shop_address": "Arturo illia 3323 ",
    "shop_lat": -34.72148997314741,
    "shop_lng": -58.36382052182605,
    "nearest_supermarket": {
      "id": "26374",
      "name": "Supermercados DIA",
      "address": "Cl Eva Peron 3349",
      "lat": -34.72137,
      "lng": -58.362988,
      "city": "Lanús",
      "province": "Buenos Aires"
    },
    "distance_km": 0.07724859526543944,
    "pedidos_en_direccion": 16,
    "total_pedidos_lider": 16
  },
  {
    "community_leader_id": "c7a55f5e51184e0f91c966d00eb5110a",
    "shop_name": "c7a55f5e51184e0f91c966d00eb5110a",
    "shop_address": "Nazca 3151 ",
    "shop_lat": -34.59983032497576,
    "shop_lng": -58.49086363013476,
    "nearest_supermarket": {
      "id": "40099",
      "name": "Supermercados DIA",
      "address": "Del Barco Centenera 2279",
      "lat": -34.59915,
      "lng": -58.491222,
      "city": "Buenos Aires",
      "province": "CABA"
    },
    "distance_km": 0.08245391578651771,
    "pedidos_en_direccion": 7,
    "total_pedidos_lider": 7
  },
  {
    "community_leader_id": "60d13dce19b24798b8316263ad169ae8",
    "shop_name": "60d13dce19b24798b8316263ad169ae8",
    "shop_address": "Chenaut 1909 ",
    "shop_lat": -34.68299142802733,
    "shop_lng": -58.58940728847672,
    "nearest_supermarket": {
      "id": "35007",
      "name": "Supermercados DIA",
      "address": "Venezuela 4531",
      "lat": -34.68296,
      "lng": -58.59034,
      "city": "Villa Luzuriaga",
      "province": "Buenos Aires"
    },
    "distance_km": 0.08535595962921572,
    "pedidos_en_direccion": 5,
    "total_pedidos_lider": 5
  },
  {
    "community_leader_id": "07df29c6cfce4f24a44660b0ad07778f",
    "shop_name": "07df29c6cfce4f24a44660b0ad07778f",
    "shop_address": "Monseñor José Francisco Marcón 3655 ",
    "shop_lat": -34.683929164594446,
    "shop_lng": -58.555144075155305,
    "nearest_supermarket": {
      "id": "31356",
      "name": "Supermercados DIA",
      "address": "Cl Juan M.De Rosas 3634",
      "lat": -34.683155,
      "lng": -58.555054,
      "city": "La Matanza",
      "province": "Buenos Aires"
    },
    "distance_km": 0.08647628136400076,
    "pedidos_en_direccion": 14,
    "total_pedidos_lider": 14
  },
  {
    "community_leader_id": "087e45a77cc14c8ea7ea88968251b6f5",
    "shop_name": "087e45a77cc14c8ea7ea88968251b6f5",
    "shop_address": "Tte. Oscar Camilli 45 ",
    "shop_lat": -34.64813639703204,
    "shop_lng": -58.79552310328816,
    "nearest_supermarket": {
      "id": "25730",
      "name": "Supermercados DIA",
      "address": "Av Bartolome Mitre 3244",
      "lat": -34.64751,
      "lng": -58.79612,
      "city": "Moreno",
      "province": "Buenos Aires"
    },
    "distance_km": 0.08850290259174304,
    "pedidos_en_direccion": 205,
    "total_pedidos_lider": 205
  },
  {
    "community_leader_id": "df45fd12689247f0b2ac5a06fdf4f56c",
    "shop_name": "df45fd12689247f0b2ac5a06fdf4f56c",
    "shop_address": "Araujo  4362",
    "shop_lat": -34.67414882898588,
    "shop_lng": -58.46116202832679,
    "nearest_supermarket": {
      "id": "481",
      "name": "Jumbo",
      "address": "Av. Gral. Francisco Fernández de la Cruz 4602",
      "lat": -34.67464,
      "lng": -58.460373,
      "city": "Buenos Aires",
      "province": "CABA"
    },
    "distance_km": 0.09049343989340455,
    "pedidos_en_direccion": 13,
    "total_pedidos_lider": 13
  },
  {
    "community_leader_id": "cbce63aaf46442cbae06ff35258d90a2",
    "shop_name": "cbce63aaf46442cbae06ff35258d90a2",
    "shop_address": "Valentin gomez 4819 ",
    "shop_lat": -34.75626727751871,
    "shop_lng": -58.60452128702601,
    "nearest_supermarket": {
      "id": "37386",
      "name": "Supermercados DIA",
      "address": "Av Rojo 4787",
      "lat": -34.7565,
      "lng": -58.60354,
      "city": "Gregorio de Laferrere",
      "province": "Buenos Aires"
    },
    "distance_km": 0.0933065880951325,
    "pedidos_en_direccion": 11,
    "total_pedidos_lider": 11
  },
  {
    "community_leader_id": "a343289be45f456aaff679b1291bbcc4",
    "shop_name": "a343289be45f456aaff679b1291bbcc4",
    "shop_address": "Int. Corvalan 2794 ",
    "shop_lat": -34.635956643765965,
    "shop_lng": -58.75862963848815,
    "nearest_supermarket": {
      "id": "3792",
      "name": "Supermayorista Vital",
      "address": "Acceso Oeste y Cruce Graham Bell Nº0, Moreno",
      "lat": -34.63588,
      "lng": -58.75966,
      "city": "Buenos Aires",
      "province": "CABA"
    },
    "distance_km": 0.09465119061743127,
    "pedidos_en_direccion": 14,
    "total_pedidos_lider": 14
  },
  {
    "community_leader_id": "e215e063e55c497783a74747f138c300",
    "shop_name": "e215e063e55c497783a74747f138c300",
    "shop_address": "Olegario Víctor Andrade 5535 ",
    "shop_lat": -34.745081994601655,
    "shop_lng": -58.59324942429181,
    "nearest_supermarket": {
      "id": "35096",
      "name": "Supermercados DIA",
      "address": "Av Luro 5530",
      "lat": -34.74451,
      "lng": -58.59247,
      "city": "Gregorio de Laferrere",
      "province": "Buenos Aires"
    },
    "distance_km": 0.0954824885668269,
    "pedidos_en_direccion": 13,
    "total_pedidos_lider": 13
  },
  {
    "community_leader_id": "235da52848804c08af8066d3fef3dd7f",
    "shop_name": "235da52848804c08af8066d3fef3dd7f",
    "shop_address": "Canada  10642",
    "shop_lat": -34.58193735889559,
    "shop_lng": -58.75399502434681,
    "nearest_supermarket": {
      "id": "37388",
      "name": "Supermercados DIA",
      "address": "Cervantes 1583",
      "lat": -34.58108,
      "lng": -58.75389,
      "city": "Trujui",
      "province": "Buenos Aires"
    },
    "distance_km": 0.09581758479950907,
    "pedidos_en_direccion": 209,
    "total_pedidos_lider": 209
  },
  {
    "community_leader_id": "239be221c93a4f97a0e3257552690a86",
    "shop_name": "239be221c93a4f97a0e3257552690a86",
    "shop_address": "Valentin gomez 4819 ",
    "shop_lat": -34.756252531653914,
    "shop_lng": -58.6045510733238,
    "nearest_supermarket": {
      "id": "37386",
      "name": "Supermercados DIA",
      "address": "Av Rojo 4787",
      "lat": -34.7565,
      "lng": -58.60354,
      "city": "Gregorio de Laferrere",
      "province": "Buenos Aires"
    },
    "distance_km": 0.09637924239327504,
    "pedidos_en_direccion": 1,
    "total_pedidos_lider": 1
  },
  {
    "community_leader_id": "c9f9537114c749de8bf45561008c5173",
    "shop_name": "c9f9537114c749de8bf45561008c5173",
    "shop_address": "Riobamba 51 ",
    "shop_lat": -34.70247583499812,
    "shop_lng": -58.39123137872127,
    "nearest_supermarket": {
      "id": "27445",
      "name": "Supermercados Vea",
      "address": "Avenida Yrigoyen Presidente Hipolito 4174",
      "lat": -34.70334,
      "lng": -58.39154,
      "city": "Lanús",
      "province": "Buenos Aires"
    },
    "distance_km": 0.10014682774826841,
    "pedidos_en_direccion": 1,
    "total_pedidos_lider": 1
  },
  {
    "community_leader_id": "983bfbd6f28f424485402a654190a9f7",
    "shop_name": "983bfbd6f28f424485402a654190a9f7",
    "shop_address": "Sudamerica  3918",
    "shop_lat": -34.72635076287268,
    "shop_lng": -58.60101260521843,
    "nearest_supermarket": {
      "id": "3791",
      "name": "Supermayorista Vital",
      "address": "RN3 Km. Nº25, Laferrere",
      "lat": -34.72545,
      "lng": -58.60074,
      "city": "Buenos Aires",
      "province": "CABA"
    },
    "distance_km": 0.10321215968081682,
    "pedidos_en_direccion": 26,
    "total_pedidos_lider": 26
  },
  {
    "community_leader_id": "578a2b5c6b4e47bcbd75e47a9cd4bf2b",
    "shop_name": "578a2b5c6b4e47bcbd75e47a9cd4bf2b",
    "shop_address": "Sarandi 31 ",
    "shop_lat": -34.60960829792327,
    "shop_lng": -58.394988162130815,
    "nearest_supermarket": {
      "id": "32420",
      "name": "Supermercados DIA",
      "address": "Av Rivadavia 2089",
      "lat": -34.609356,
      "lng": -58.396107,
      "city": "Microcentro",
      "province": "CABA"
    },
    "distance_km": 0.10616761969329247,
    "pedidos_en_direccion": 1,
    "total_pedidos_lider": 1
  },
  {
    "community_leader_id": "82e985ca05984143ad565ae889cfd8ea",
    "shop_name": "82e985ca05984143ad565ae889cfd8ea",
    "shop_address": "Salta 3304",
    "shop_lat": -34.681580904443145,
    "shop_lng": -58.56860735767173,
    "nearest_supermarket": {
      "id": "3794",
      "name": "Supermayorista Vital",
      "address": "Av. Monseñor Bufano Nº2900, San Justo",
      "lat": -34.68216,
      "lng": -58.56958,
      "city": "Buenos Aires",
      "province": "CABA"
    },
    "distance_km": 0.10980043273802349,
    "pedidos_en_direccion": 76,
    "total_pedidos_lider": 108
  },
  {
    "community_leader_id": "4daa7ae7305b4915851d88e317b015ab",
    "shop_name": "4daa7ae7305b4915851d88e317b015ab",
    "shop_address": "Claudio de Alas 2080 ",
    "shop_lat": -34.721234150450094,
    "shop_lng": -58.46225900620544,
    "nearest_supermarket": {
      "id": "25721",
      "name": "Supermercados DIA",
      "address": "Cl Claudio de Alas 2150",
      "lat": -34.72044,
      "lng": -58.46299,
      "city": "Ingeniero Budge",
      "province": "Buenos Aires"
    },
    "distance_km": 0.11073097658750423,
    "pedidos_en_direccion": 1,
    "total_pedidos_lider": 1
  },
  {
    "community_leader_id": "d579b08ec7d74fd8b3ecac0a37876d85",
    "shop_name": "d579b08ec7d74fd8b3ecac0a37876d85",
    "shop_address": "República de Eslovenia 2436 ",
    "shop_lat": -34.636116956487896,
    "shop_lng": -58.629539409065536,
    "nearest_supermarket": {
      "id": "470",
      "name": "Jumbo",
      "address": "Blvd. Juan Manuel de Rosas 658",
      "lat": -34.63513,
      "lng": -58.62988,
      "city": "Morón",
      "province": "Buenos Aires"
    },
    "distance_km": 0.11408259997668282,
    "pedidos_en_direccion": 7,
    "total_pedidos_lider": 7
  },
  {
    "community_leader_id": "26e67ef725ee487a9b5596fdb0e7da22",
    "shop_name": "26e67ef725ee487a9b5596fdb0e7da22",
    "shop_address": "Calle Japon 76 ",
    "shop_lat": -34.692790159682346,
    "shop_lng": -58.60909219273392,
    "nearest_supermarket": {
      "id": "11263",
      "name": "Supermercados DIA",
      "address": "Cl Cristiania 1400",
      "lat": -34.692802,
      "lng": -58.607838,
      "city": "Rafael Castillo",
      "province": "Buenos Aires"
    },
    "distance_km": 0.11467363965522663,
    "pedidos_en_direccion": 6,
    "total_pedidos_lider": 6
  },
  {
    "community_leader_id": "28af27db95cb4b33bcfeeb494121e360",
    "shop_name": "28af27db95cb4b33bcfeeb494121e360",
    "shop_address": "Moreno 3147",
    "shop_lat": -34.57464924914461,
    "shop_lng": -58.53154816726326,
    "nearest_supermarket": {
      "id": "35457",
      "name": "Changomas",
      "address": "Estrada 3072/82/84",
      "lat": -34.57417,
      "lng": -58.53042,
      "city": "San Martín",
      "province": "Buenos Aires"
    },
    "distance_km": 0.11622795458572002,
    "pedidos_en_direccion": 280,
    "total_pedidos_lider": 280
  },
  {
    "community_leader_id": "33e4018135ea42b6885ee559f1921b71",
    "shop_name": "33e4018135ea42b6885ee559f1921b71",
    "shop_address": "La Pampa 2239, CABA ",
    "shop_lat": -34.563901183946044,
    "shop_lng": -58.45283970142809,
    "nearest_supermarket": {
      "id": "1390",
      "name": "Disco",
      "address": "Cuba 1714",
      "lat": -34.56451,
      "lng": -58.45176,
      "city": "Buenos Aires",
      "province": "CABA"
    },
    "distance_km": 0.11982248482514739,
    "pedidos_en_direccion": 650,
    "total_pedidos_lider": 650
  },
  {
    "community_leader_id": "6677eecc1cb144a58dc435d66e786b48",
    "shop_name": "6677eecc1cb144a58dc435d66e786b48",
    "shop_address": "Delgado  828",
    "shop_lat": -34.57846443364285,
    "shop_lng": -58.453250904202875,
    "nearest_supermarket": {
      "id": "31399",
      "name": "Supermercados DIA",
      "address": "Av Alvarez Thomas 849",
      "lat": -34.579304,
      "lng": -58.454094,
      "city": "La Paternal",
      "province": "CABA"
    },
    "distance_km": 0.12113250247546643,
    "pedidos_en_direccion": 16,
    "total_pedidos_lider": 16
  },
  {
    "community_leader_id": "1d6164d5705547da83f684dcc29dcda7",
    "shop_name": "1d6164d5705547da83f684dcc29dcda7",
    "shop_address": "Juan de Garay 237 ",
    "shop_lat": -34.72661416398521,
    "shop_lng": -58.39838223025591,
    "nearest_supermarket": {
      "id": "31353",
      "name": "Supermercados DIA",
      "address": "Cl Coronel Beltran 239",
      "lat": -34.725525,
      "lng": -58.398262,
      "city": "Lanús",
      "province": "Buenos Aires"
    },
    "distance_km": 0.12160692611608716,
    "pedidos_en_direccion": 24,
    "total_pedidos_lider": 24
  },
  {
    "community_leader_id": "8e4f93020dfe4096816b01ebc112a520",
    "shop_name": "8e4f93020dfe4096816b01ebc112a520",
    "shop_address": "Sudamerica  3600",
    "shop_lat": -34.72563284321861,
    "shop_lng": -58.602069304585456,
    "nearest_supermarket": {
      "id": "3791",
      "name": "Supermayorista Vital",
      "address": "RN3 Km. Nº25, Laferrere",
      "lat": -34.72545,
      "lng": -58.60074,
      "city": "Buenos Aires",
      "province": "CABA"
    },
    "distance_km": 0.12317469724126702,
    "pedidos_en_direccion": 134,
    "total_pedidos_lider": 134
  },
  {
    "community_leader_id": "5a76d3e7e98943e4a7e9dbad20532a00",
    "shop_name": "5a76d3e7e98943e4a7e9dbad20532a00",
    "shop_address": "Gral. Roca 4373, Villa Ballester, Provincia de Buenos Aires ",
    "shop_lat": -34.55932481219871,
    "shop_lng": -58.570869761773345,
    "nearest_supermarket": {
      "id": "25532",
      "name": "Supermercados DIA",
      "address": "Avenida 101 9 de Julio, 5300",
      "lat": -34.5584039,
      "lng": -58.5700764,
      "city": "Villa Ballester",
      "province": "Gral. San Martín"
    },
    "distance_km": 0.12555523751461212,
    "pedidos_en_direccion": 1,
    "total_pedidos_lider": 1
  },
  {
    "community_leader_id": "75c04662d2b9416bbf955e933a8805d3",
    "shop_name": "75c04662d2b9416bbf955e933a8805d3",
    "shop_address": "Nicaragua  4361 ",
    "shop_lat": -34.58981357198864,
    "shop_lng": -58.42290524731049,
    "nearest_supermarket": {
      "id": "27415",
      "name": "Coto",
      "address": "Palermo Av. Scalabrini Ortíz 1688",
      "lat": -34.59023,
      "lng": -58.42419,
      "city": "Buenos Aires",
      "province": "CABA"
    },
    "distance_km": 0.12639315741108384,
    "pedidos_en_direccion": 1,
    "total_pedidos_lider": 1
  },
  {
    "community_leader_id": "639274eeff774d238960c6888c32f80e",
    "shop_name": "639274eeff774d238960c6888c32f80e",
    "shop_address": "Gral. José de San Martín  71",
    "shop_lat": -34.648796385853416,
    "shop_lng": -58.62321486132126,
    "nearest_supermarket": {
      "id": "41484",
      "name": "Supermercados DIA",
      "address": "Av. Rivadavia 18362",
      "lat": -34.64938,
      "lng": -58.621997,
      "city": "Morón",
      "province": ""
    },
    "distance_km": 0.12892643713272106,
    "pedidos_en_direccion": 290,
    "total_pedidos_lider": 340
  },
  {
    "community_leader_id": "190a8cc6032c4907a21ca12209b930de",
    "shop_name": "190a8cc6032c4907a21ca12209b930de",
    "shop_address": "General Urquiza 110  2A",
    "shop_lat": -34.61158164105367,
    "shop_lng": -58.41011685142667,
    "nearest_supermarket": {
      "id": "25580",
      "name": "Supermercados DIA",
      "address": "Av Rivadavia 3050",
      "lat": -34.61053,
      "lng": -58.409515,
      "city": "Buenos Aires",
      "province": "CABA"
    },
    "distance_km": 0.12925952118183345,
    "pedidos_en_direccion": 13,
    "total_pedidos_lider": 13
  },
  {
    "community_leader_id": "54c385ace05b463ba3f0843b49f064cf",
    "shop_name": "54c385ace05b463ba3f0843b49f064cf",
    "shop_address": "José León Suárez 2968 ",
    "shop_lat": -34.71393685586025,
    "shop_lng": -58.42598362037407,
    "nearest_supermarket": {
      "id": "37365",
      "name": "Supermercados DIA",
      "address": "San Martin 4334",
      "lat": -34.71326,
      "lng": -58.42714,
      "city": "Remedios de Escalada",
      "province": "Buenos Aires"
    },
    "distance_km": 0.12975487604014074,
    "pedidos_en_direccion": 29,
    "total_pedidos_lider": 29
  },
  {
    "community_leader_id": "9b6f00627ef84fd7bcfaa32310fa1817",
    "shop_name": "9b6f00627ef84fd7bcfaa32310fa1817",
    "shop_address": "Enrique Ochoa 54 ",
    "shop_lat": -34.64728803455494,
    "shop_lng": -58.41511653043387,
    "nearest_supermarket": {
      "id": "37423",
      "name": "Supermercados DIA",
      "address": "Almafuerte724/726/730",
      "lat": -34.6462,
      "lng": -58.4146,
      "city": "Valentín Alsina",
      "province": "Buenos Aires"
    },
    "distance_km": 0.12988354798622173,
    "pedidos_en_direccion": 80,
    "total_pedidos_lider": 80
  },
  {
    "community_leader_id": "eb611e68e4c34909ba06612999e46887",
    "shop_name": "eb611e68e4c34909ba06612999e46887",
    "shop_address": "Carlos Pellegrini 880 ",
    "shop_lat": -34.65478962976677,
    "shop_lng": -58.621037974532065,
    "nearest_supermarket": {
      "id": "40518",
      "name": "Disco",
      "address": "M. García esq. Belgrano - Moron",
      "lat": -34.65361,
      "lng": -58.62083,
      "city": "Morón",
      "province": "Buenos Aires"
    },
    "distance_km": 0.13254111644944244,
    "pedidos_en_direccion": 2,
    "total_pedidos_lider": 2
  },
  {
    "community_leader_id": "2893b60969084462b260cad76f7a7281",
    "shop_name": "2893b60969084462b260cad76f7a7281",
    "shop_address": "El pampero 6066 ",
    "shop_lat": -34.77598990971379,
    "shop_lng": -58.621528037258635,
    "nearest_supermarket": {
      "id": "385",
      "name": "Coto",
      "address": "Ruta Nacional 3,gonzalez Catan,buenos Aires 4440",
      "lat": -34.774826,
      "lng": -58.62193,
      "city": "González Catán",
      "province": "Buenos Aires"
    },
    "distance_km": 0.1345273856320437,
    "pedidos_en_direccion": 103,
    "total_pedidos_lider": 103
  },
  {
    "community_leader_id": "08a8bbb89aca419da8793c5a6528faa1",
    "shop_name": "08a8bbb89aca419da8793c5a6528faa1",
    "shop_address": "9 de Julio 74 ",
    "shop_lat": -34.89005176388909,
    "shop_lng": -58.56564554325798,
    "nearest_supermarket": {
      "id": "11243",
      "name": "Supermercados DIA",
      "address": "Cl Guillermo Gaddini 109",
      "lat": -34.89112,
      "lng": -58.566345,
      "city": "Ezeiza",
      "province": "Buenos Aires"
    },
    "distance_km": 0.13483000389010144,
    "pedidos_en_direccion": 2,
    "total_pedidos_lider": 2
  },
  {
    "community_leader_id": "99ed177e7efd4ed9bafcda9a6947b4ac",
    "shop_name": "99ed177e7efd4ed9bafcda9a6947b4ac",
    "shop_address": "Paso de Uspallata  1220",
    "shop_lat": -34.489347192897284,
    "shop_lng": -58.72577891881531,
    "nearest_supermarket": {
      "id": "11246",
      "name": "Supermercados DIA",
      "address": "El Callao 1242",
      "lat": -34.488876,
      "lng": -58.72436,
      "city": "Grand Bourg",
      "province": "Buenos Aires"
    },
    "distance_km": 0.1402027282845493,
    "pedidos_en_direccion": 320,
    "total_pedidos_lider": 320
  },
  {
    "community_leader_id": "d9580d9cd03f46e9afd8b7d2881ce519",
    "shop_name": "d9580d9cd03f46e9afd8b7d2881ce519",
    "shop_address": "Celina Hilda Liveranome de Minetto 980 ",
    "shop_lat": -34.7335272228942,
    "shop_lng": -58.42736268179464,
    "nearest_supermarket": {
      "id": "26362",
      "name": "Supermercados DIA",
      "address": "Av M. Rodriguez y G. Mistral 950",
      "lat": -34.73284,
      "lng": -58.428665,
      "city": "Lomas de Zamora",
      "province": "Buenos Aires"
    },
    "distance_km": 0.14142925775219095,
    "pedidos_en_direccion": 17,
    "total_pedidos_lider": 17
  },
  {
    "community_leader_id": "182295be83dd42c2a2874c0d1c09aaf7",
    "shop_name": "182295be83dd42c2a2874c0d1c09aaf7",
    "shop_address": "Perdriel 3088 ",
    "shop_lat": -34.70890748477974,
    "shop_lng": -58.418647219830085,
    "nearest_supermarket": {
      "id": "25727",
      "name": "Supermercados DIA",
      "address": "San Vladimiro 3165",
      "lat": -34.70775,
      "lng": -58.418,
      "city": "Lanús",
      "province": "Buenos Aires"
    },
    "distance_km": 0.14165259832490648,
    "pedidos_en_direccion": 9,
    "total_pedidos_lider": 9
  },
  {
    "community_leader_id": "9d796b0c1cc146b9bb98eadc38124084",
    "shop_name": "9d796b0c1cc146b9bb98eadc38124084",
    "shop_address": "Belgrano  366",
    "shop_lat": -34.65234634590953,
    "shop_lng": -58.621104710401866,
    "nearest_supermarket": {
      "id": "40518",
      "name": "Disco",
      "address": "M. García esq. Belgrano - Moron",
      "lat": -34.65361,
      "lng": -58.62083,
      "city": "Morón",
      "province": "Buenos Aires"
    },
    "distance_km": 0.1427410501241057,
    "pedidos_en_direccion": 71,
    "total_pedidos_lider": 78
  },
  {
    "community_leader_id": "8c834e960bd1473aacda41b640399c16",
    "shop_name": "8c834e960bd1473aacda41b640399c16",
    "shop_address": "C. Esteban Echeverría  3971",
    "shop_lat": -34.732095917882106,
    "shop_lng": -58.60642868884248,
    "nearest_supermarket": {
      "id": "35097",
      "name": "Supermercados DIA",
      "address": "Av Luro 3901",
      "lat": -34.73274,
      "lng": -58.60779,
      "city": "Gregorio de Laferrere",
      "province": "Buenos Aires"
    },
    "distance_km": 0.14354291606103473,
    "pedidos_en_direccion": 181,
    "total_pedidos_lider": 181
  },
  {
    "community_leader_id": "62307a6640c74408b17495c6bd6d1955",
    "shop_name": "62307a6640c74408b17495c6bd6d1955",
    "shop_address": "Tte. J. A. Rangugni 2907 ",
    "shop_lat": -34.70600100286889,
    "shop_lng": -58.4006377117771,
    "nearest_supermarket": {
      "id": "26373",
      "name": "Supermercados DIA",
      "address": "25 de May 0571",
      "lat": -34.70716,
      "lng": -58.39994,
      "city": "Lanús",
      "province": "Buenos Aires"
    },
    "distance_km": 0.14379277327792384,
    "pedidos_en_direccion": 1,
    "total_pedidos_lider": 1
  },
  {
    "community_leader_id": "5ccd0b213e0142c89f1842af9b139f0b",
    "shop_name": "5ccd0b213e0142c89f1842af9b139f0b",
    "shop_address": "Jose Antonio cabrera 3856 ",
    "shop_lat": -34.596677210021724,
    "shop_lng": -58.42093417309214,
    "nearest_supermarket": {
      "id": "35122",
      "name": "Supermercados DIA",
      "address": "Av Cordoba 3810/12/14",
      "lat": -34.59796,
      "lng": -58.42065,
      "city": "Recoleta",
      "province": "CABA"
    },
    "distance_km": 0.14499191882187737,
    "pedidos_en_direccion": 1,
    "total_pedidos_lider": 1
  },
  {
    "community_leader_id": "a70235db80244bc7bc86751c6ebb35fb",
    "shop_name": "a70235db80244bc7bc86751c6ebb35fb",
    "shop_address": "Bazurco 817 ",
    "shop_lat": -34.689616611588875,
    "shop_lng": -58.62501095454837,
    "nearest_supermarket": {
      "id": "27047",
      "name": "Changomas",
      "address": "Don Bosco 5635",
      "lat": -34.689,
      "lng": -58.62641,
      "city": "Morón",
      "province": "Buenos Aires"
    },
    "distance_km": 0.14513176968391445,
    "pedidos_en_direccion": 60,
    "total_pedidos_lider": 60
  },
  {
    "community_leader_id": "7689805a6eb24e808fa9143640e404a9",
    "shop_name": "7689805a6eb24e808fa9143640e404a9",
    "shop_address": "José León Suárez 2982 ",
    "shop_lat": -34.71411868872111,
    "shop_lng": -58.42593360216649,
    "nearest_supermarket": {
      "id": "37365",
      "name": "Supermercados DIA",
      "address": "San Martin 4334",
      "lat": -34.71326,
      "lng": -58.42714,
      "city": "Remedios de Escalada",
      "province": "Buenos Aires"
    },
    "distance_km": 0.14586270064967544,
    "pedidos_en_direccion": 7,
    "total_pedidos_lider": 7
  },
  {
    "community_leader_id": "1c52760c33894286be7c51eee0fc1693",
    "shop_name": "1c52760c33894286be7c51eee0fc1693",
    "shop_address": "Perdriel 3088 ",
    "shop_lat": -34.708928274169196,
    "shop_lng": -58.4187274794732,
    "nearest_supermarket": {
      "id": "25727",
      "name": "Supermercados DIA",
      "address": "San Vladimiro 3165",
      "lat": -34.70775,
      "lng": -58.418,
      "city": "Lanús",
      "province": "Buenos Aires"
    },
    "distance_km": 0.1469277202627054,
    "pedidos_en_direccion": 8,
    "total_pedidos_lider": 8
  },
  {
    "community_leader_id": "196720a8b4484394b04bc790e1062872",
    "shop_name": "196720a8b4484394b04bc790e1062872",
    "shop_address": "Gral. Rivas  4445",
    "shop_lat": -34.77293899005751,
    "shop_lng": -58.64744290644086,
    "nearest_supermarket": {
      "id": "40104",
      "name": "Supermercados DIA",
      "address": "Caxaraville 639",
      "lat": -34.774223,
      "lng": -58.64795,
      "city": "González Catán",
      "province": "Buenos Aires"
    },
    "distance_km": 0.15010001985774069,
    "pedidos_en_direccion": 5,
    "total_pedidos_lider": 5
  },
  {
    "community_leader_id": "18a32f8618a14d8f956744a3fb7b9478",
    "shop_name": "18a32f8618a14d8f956744a3fb7b9478",
    "shop_address": "Osvaldo Magnasco  7162",
    "shop_lat": -34.77531417920404,
    "shop_lng": -58.62039392221123,
    "nearest_supermarket": {
      "id": "385",
      "name": "Coto",
      "address": "Ruta Nacional 3,gonzalez Catan,buenos Aires 4440",
      "lat": -34.774826,
      "lng": -58.62193,
      "city": "González Catán",
      "province": "Buenos Aires"
    },
    "distance_km": 0.15043331858812584,
    "pedidos_en_direccion": 50,
    "total_pedidos_lider": 50
  },
  {
    "community_leader_id": "5350003661104ee5b7ee9991138e0f03",
    "shop_name": "5350003661104ee5b7ee9991138e0f03",
    "shop_address": "Edmundo D'amicis 7471 ",
    "shop_lat": -34.81160606945027,
    "shop_lng": -58.633285711085605,
    "nearest_supermarket": {
      "id": "11270",
      "name": "Supermercados DIA",
      "address": "Cl Rio de la Plata 7431",
      "lat": -34.812496,
      "lng": -58.634533,
      "city": "Virrey del Pino",
      "province": "Buenos Aires"
    },
    "distance_km": 0.15085985865414683,
    "pedidos_en_direccion": 209,
    "total_pedidos_lider": 209
  },
  {
    "community_leader_id": "8c485d165a1e44a080a17b27e9a7d41e",
    "shop_name": "8c485d165a1e44a080a17b27e9a7d41e",
    "shop_address": "Melincué 3324, C1417 CABA ",
    "shop_lat": -34.60393111281804,
    "shop_lng": -58.495689130772384,
    "nearest_supermarket": {
      "id": "25682",
      "name": "Supermercados DIA",
      "address": "Nogoya 3240",
      "lat": -34.60401,
      "lng": -58.49404,
      "city": "Villa Devoto",
      "province": "CABA"
    },
    "distance_km": 0.15119007521591443,
    "pedidos_en_direccion": 313,
    "total_pedidos_lider": 313
  },
  {
    "community_leader_id": "f74aea9d74e54026a5bd4087c7300451",
    "shop_name": "f74aea9d74e54026a5bd4087c7300451",
    "shop_address": "Edmundo Damicis 7471",
    "shop_lat": -34.81155262154339,
    "shop_lng": -58.63332865081942,
    "nearest_supermarket": {
      "id": "11270",
      "name": "Supermercados DIA",
      "address": "Cl Rio de la Plata 7431",
      "lat": -34.812496,
      "lng": -58.634533,
      "city": "Virrey del Pino",
      "province": "Buenos Aires"
    },
    "distance_km": 0.15196325318057707,
    "pedidos_en_direccion": 1,
    "total_pedidos_lider": 1
  },
  {
    "community_leader_id": "f936ca0d22044f7d99b750d2a231a8f8",
    "shop_name": "f936ca0d22044f7d99b750d2a231a8f8",
    "shop_address": "Bartolomé Mitre 3254 P 1, DPTO F",
    "shop_lat": -34.57340025156241,
    "shop_lng": -58.53420845909957,
    "nearest_supermarket": {
      "id": "31354",
      "name": "Supermercados DIA",
      "address": "Belgrano 3162",
      "lat": -34.573814,
      "lng": -58.5326,
      "city": "San Martín",
      "province": "Buenos Aires"
    },
    "distance_km": 0.15428582855689948,
    "pedidos_en_direccion": 5,
    "total_pedidos_lider": 5
  },
  {
    "community_leader_id": "6cef329b93894a01914e606be98e761f",
    "shop_name": "6cef329b93894a01914e606be98e761f",
    "shop_address": "Juana Azurduy  1211",
    "shop_lat": -34.70250868328505,
    "shop_lng": -58.6183843793007,
    "nearest_supermarket": {
      "id": "35070",
      "name": "Supermercados DIA",
      "address": "Av Carlos Casares 1244",
      "lat": -34.70193,
      "lng": -58.61992,
      "city": "Rafael Castillo",
      "province": "Buenos Aires"
    },
    "distance_km": 0.15442484011307436,
    "pedidos_en_direccion": 50,
    "total_pedidos_lider": 50
  },
  {
    "community_leader_id": "8a175e0381df43218bd38d9d93365f03",
    "shop_name": "8a175e0381df43218bd38d9d93365f03",
    "shop_address": "Gelly y Obes 1574 ",
    "shop_lat": -34.548247235197096,
    "shop_lng": -58.71775697670082,
    "nearest_supermarket": {
      "id": "35134",
      "name": "Supermercados DIA",
      "address": "Av Balbin 1727",
      "lat": -34.54711,
      "lng": -58.71674,
      "city": "San Miguel (Buenos Aires)",
      "province": "Buenos Aires"
    },
    "distance_km": 0.1570543409328822,
    "pedidos_en_direccion": 99,
    "total_pedidos_lider": 99
  },
  {
    "community_leader_id": "1c5f2290d88b47e7b9dd33c292f4bf46",
    "shop_name": "1c5f2290d88b47e7b9dd33c292f4bf46",
    "shop_address": "Padre Varvello 3959 ",
    "shop_lat": -34.63957493444023,
    "shop_lng": -58.7391466134924,
    "nearest_supermarket": {
      "id": "31346",
      "name": "Supermercados DIA",
      "address": "Av Zapiola 529",
      "lat": -34.6387,
      "lng": -58.73777,
      "city": "Merlo (Buenos Aires)",
      "province": "Buenos Aires"
    },
    "distance_km": 0.159141172915052,
    "pedidos_en_direccion": 6,
    "total_pedidos_lider": 6
  },
  {
    "community_leader_id": "30ce4e96b21d4c39aa80da4a22aff08a",
    "shop_name": "30ce4e96b21d4c39aa80da4a22aff08a",
    "shop_address": "Perito moreno 2684 ",
    "shop_lat": -34.501953553212616,
    "shop_lng": -58.6923176865875,
    "nearest_supermarket": {
      "id": "35092",
      "name": "Supermercados DIA",
      "address": "Av Pte J D Peron 3146",
      "lat": -34.50063,
      "lng": -58.69162,
      "city": "Los Polvorines",
      "province": "Buenos Aires"
    },
    "distance_km": 0.16045959290122422,
    "pedidos_en_direccion": 7,
    "total_pedidos_lider": 7
  },
  {
    "community_leader_id": "736f1246ca9c41a49f479e1623e0d8d8",
    "shop_name": "736f1246ca9c41a49f479e1623e0d8d8",
    "shop_address": "Armenia 858 ",
    "shop_lat": -34.67113204502772,
    "shop_lng": -58.411850740055655,
    "nearest_supermarket": {
      "id": "25542",
      "name": "Supermercados DIA",
      "address": "Pte J. D. Peron 3241",
      "lat": -34.669785,
      "lng": -58.411045,
      "city": "Valentín Alsina",
      "province": "Buenos Aires"
    },
    "distance_km": 0.16692809974144143,
    "pedidos_en_direccion": 2,
    "total_pedidos_lider": 2
  },
  {
    "community_leader_id": "efd9460fd08e45dc8da752fe4f5a694f",
    "shop_name": "efd9460fd08e45dc8da752fe4f5a694f",
    "shop_address": "Ricardo Gutiérrez 5530 ",
    "shop_lat": -34.74552883508292,
    "shop_lng": -58.5938231614971,
    "nearest_supermarket": {
      "id": "35096",
      "name": "Supermercados DIA",
      "address": "Av Luro 5530",
      "lat": -34.74451,
      "lng": -58.59247,
      "city": "Gregorio de Laferrere",
      "province": "Buenos Aires"
    },
    "distance_km": 0.16769138546718754,
    "pedidos_en_direccion": 109,
    "total_pedidos_lider": 109
  },
  {
    "community_leader_id": "a7c5f924ff1d44738dd42e90627d76be",
    "shop_name": "a7c5f924ff1d44738dd42e90627d76be",
    "shop_address": "Vicuña 2026",
    "shop_lat": -34.579538777115886,
    "shop_lng": -58.38741243015462,
    "nearest_supermarket": {
      "id": "38983",
      "name": "Diarco",
      "address": "Av. Ramón Castillo 1721",
      "lat": -34.57842,
      "lng": -58.38612,
      "city": "Recoleta",
      "province": "CABA"
    },
    "distance_km": 0.1716874122057873,
    "pedidos_en_direccion": 28,
    "total_pedidos_lider": 28
  },
  {
    "community_leader_id": "2feaea197ebd49e9aca97bf7e79df74e",
    "shop_name": "2feaea197ebd49e9aca97bf7e79df74e",
    "shop_address": "Granville 2178 1° piso ",
    "shop_lat": -34.70111103684182,
    "shop_lng": -58.62552680214132,
    "nearest_supermarket": {
      "id": "11274",
      "name": "Supermercados DIA",
      "address": "Santa Cruz 1038",
      "lat": -34.699703,
      "lng": -58.62473,
      "city": "Rafael Castillo",
      "province": "Buenos Aires"
    },
    "distance_km": 0.17268186776685546,
    "pedidos_en_direccion": 117,
    "total_pedidos_lider": 117
  },
  {
    "community_leader_id": "ce08017b9231479594631810b474a542",
    "shop_name": "ce08017b9231479594631810b474a542",
    "shop_address": "Urdaneta 2342 ",
    "shop_lat": -34.72684993515939,
    "shop_lng": -58.601561819929614,
    "nearest_supermarket": {
      "id": "3791",
      "name": "Supermayorista Vital",
      "address": "RN3 Km. Nº25, Laferrere",
      "lat": -34.72545,
      "lng": -58.60074,
      "city": "Buenos Aires",
      "province": "CABA"
    },
    "distance_km": 0.17283707720841437,
    "pedidos_en_direccion": 1,
    "total_pedidos_lider": 1
  },
  {
    "community_leader_id": "570faaa8e99b46eab6c7a033db68802c",
    "shop_name": "570faaa8e99b46eab6c7a033db68802c",
    "shop_address": "Alicante 1625 ",
    "shop_lat": -34.68244392217932,
    "shop_lng": -58.592140483588395,
    "nearest_supermarket": {
      "id": "35007",
      "name": "Supermercados DIA",
      "address": "Venezuela 4531",
      "lat": -34.68296,
      "lng": -58.59034,
      "city": "Villa Luzuriaga",
      "province": "Buenos Aires"
    },
    "distance_km": 0.17434615235105672,
    "pedidos_en_direccion": 4,
    "total_pedidos_lider": 4
  },
  {
    "community_leader_id": "65dbb0bd7c6e40d8a1ce3b19dc5fd965",
    "shop_name": "65dbb0bd7c6e40d8a1ce3b19dc5fd965",
    "shop_address": "Santiago Luis copello 39 ",
    "shop_lat": -34.51998686455982,
    "shop_lng": -58.75636047836678,
    "nearest_supermarket": {
      "id": "331",
      "name": "Coto",
      "address": "Jose C. Paz H. Yrigoyen 1826",
      "lat": -34.5186,
      "lng": -58.75546,
      "city": "José C. Paz",
      "province": "Buenos Aires"
    },
    "distance_km": 0.17489312545840024,
    "pedidos_en_direccion": 7,
    "total_pedidos_lider": 10
  },
  {
    "community_leader_id": "65dbb0bd7c6e40d8a1ce3b19dc5fd965",
    "shop_name": "65dbb0bd7c6e40d8a1ce3b19dc5fd965",
    "shop_address": "Santiago Luis copello 37 ",
    "shop_lat": -34.51998686455982,
    "shop_lng": -58.75636047836678,
    "nearest_supermarket": {
      "id": "331",
      "name": "Coto",
      "address": "Jose C. Paz H. Yrigoyen 1826",
      "lat": -34.5186,
      "lng": -58.75546,
      "city": "José C. Paz",
      "province": "Buenos Aires"
    },
    "distance_km": 0.17489312545840024,
    "pedidos_en_direccion": 3,
    "total_pedidos_lider": 10
  },
  {
    "community_leader_id": "5ce82bb2bca9431189b91ba78e61a546",
    "shop_name": "5ce82bb2bca9431189b91ba78e61a546",
    "shop_address": "Calle Belelli 584 ",
    "shop_lat": -34.75059375327434,
    "shop_lng": -58.421045072581364,
    "nearest_supermarket": {
      "id": "41233",
      "name": "Supermercados DIA",
      "address": "Av. Sta. Fe 500",
      "lat": -34.752026,
      "lng": -58.420177,
      "city": "Lomas de Zamora",
      "province": ""
    },
    "distance_km": 0.17791323562543526,
    "pedidos_en_direccion": 55,
    "total_pedidos_lider": 55
  },
  {
    "community_leader_id": "593d940d27a8432f824f53f2de2c691a",
    "shop_name": "593d940d27a8432f824f53f2de2c691a",
    "shop_address": "Warnes 2540 ",
    "shop_lat": -34.689458384331324,
    "shop_lng": -58.41969855259319,
    "nearest_supermarket": {
      "id": "327",
      "name": "Coto",
      "address": "Lanus, Av. B. Rivadavia 2602",
      "lat": -34.69104,
      "lng": -58.42,
      "city": "Lanús",
      "province": "Buenos Aires"
    },
    "distance_km": 0.1780141486800661,
    "pedidos_en_direccion": 217,
    "total_pedidos_lider": 217
  },
  {
    "community_leader_id": "21e062271e1241258379503277937121",
    "shop_name": "21e062271e1241258379503277937121",
    "shop_address": "Albateiro 4444 ",
    "shop_lat": -34.82657212214034,
    "shop_lng": -58.64725133771706,
    "nearest_supermarket": {
      "id": "35077",
      "name": "Supermercados DIA",
      "address": "Brigadier Gral Juan Manuel de Rosas 21545",
      "lat": -34.82804,
      "lng": -58.64647,
      "city": "Virrey del Pino",
      "province": "Buenos Aires"
    },
    "distance_km": 0.17812152183643423,
    "pedidos_en_direccion": 148,
    "total_pedidos_lider": 148
  },
  {
    "community_leader_id": "cda45d02704e4fc4a66d25a531f96c8d",
    "shop_name": "cda45d02704e4fc4a66d25a531f96c8d",
    "shop_address": "Piovano 3155 ",
    "shop_lat": -34.64883566129597,
    "shop_lng": -58.79497905316652,
    "nearest_supermarket": {
      "id": "25730",
      "name": "Supermercados DIA",
      "address": "Av Bartolome Mitre 3244",
      "lat": -34.64751,
      "lng": -58.79612,
      "city": "Moreno",
      "province": "Buenos Aires"
    },
    "distance_km": 0.18061445680586313,
    "pedidos_en_direccion": 139,
    "total_pedidos_lider": 139
  },
  {
    "community_leader_id": "e32e345ed66940ebbfaf08cec23eae74",
    "shop_name": "e32e345ed66940ebbfaf08cec23eae74",
    "shop_address": "Tres cruces  5322",
    "shop_lat": -34.734856248098026,
    "shop_lng": -58.58732376462511,
    "nearest_supermarket": {
      "id": "26376",
      "name": "Supermercados DIA",
      "address": "Cl Soldado Sosa 5460",
      "lat": -34.734715,
      "lng": -58.585308,
      "city": "Rafael Castillo",
      "province": "Buenos Aires"
    },
    "distance_km": 0.18486855106509537,
    "pedidos_en_direccion": 133,
    "total_pedidos_lider": 133
  },
  {
    "community_leader_id": "354079067fda45acb43ba9364835c1e2",
    "shop_name": "354079067fda45acb43ba9364835c1e2",
    "shop_address": "Juan agustin garcia  2100",
    "shop_lat": -34.60527514192245,
    "shop_lng": -58.47217296019292,
    "nearest_supermarket": {
      "id": "25674",
      "name": "Supermercados DIA",
      "address": "Av Alvarez Jonte 2201",
      "lat": -34.60528,
      "lng": -58.474224,
      "city": "La Paternal",
      "province": "CABA"
    },
    "distance_km": 0.1877176253010426,
    "pedidos_en_direccion": 177,
    "total_pedidos_lider": 177
  },
  {
    "community_leader_id": "9c18a630c5b94d4e8c885722e9d3b5d3",
    "shop_name": "9c18a630c5b94d4e8c885722e9d3b5d3",
    "shop_address": "Aranguren 1680 2bs ",
    "shop_lat": -34.6194742580561,
    "shop_lng": -58.45513222551353,
    "nearest_supermarket": {
      "id": "25679",
      "name": "Supermercados DIA",
      "address": "Av Donato Alvarez 442/46",
      "lat": -34.62078,
      "lng": -58.456482,
      "city": "Floresta",
      "province": "CABA"
    },
    "distance_km": 0.19062042052852046,
    "pedidos_en_direccion": 13,
    "total_pedidos_lider": 13
  },
  {
    "community_leader_id": "65c232f157054bb8b5fb874f8f6458e3",
    "shop_name": "65c232f157054bb8b5fb874f8f6458e3",
    "shop_address": "Avenida Primera Junta  839",
    "shop_lat": -34.53029663304103,
    "shop_lng": -58.72064010703005,
    "nearest_supermarket": {
      "id": "31360",
      "name": "Supermercados DIA",
      "address": "Av.Primera Junta 952",
      "lat": -34.531445,
      "lng": -58.722214,
      "city": "San Miguel (Buenos Aires)",
      "province": "Buenos Aires"
    },
    "distance_km": 0.192593129627547,
    "pedidos_en_direccion": 4,
    "total_pedidos_lider": 4
  },
  {
    "community_leader_id": "ddc86905870b4776b703294709339f3d",
    "shop_name": "ddc86905870b4776b703294709339f3d",
    "shop_address": "Rosario 7571 ",
    "shop_lat": -34.6006129121793,
    "shop_lng": -58.72453343738039,
    "nearest_supermarket": {
      "id": "40102",
      "name": "Supermercados DIA",
      "address": "Av Nestor Kirchner 2312",
      "lat": -34.60223,
      "lng": -58.72529,
      "city": "Trujui",
      "province": "Buenos Aires"
    },
    "distance_km": 0.19268455936688927,
    "pedidos_en_direccion": 65,
    "total_pedidos_lider": 65
  },
  {
    "community_leader_id": "d001f1dbab0246bd913220d7ab649041",
    "shop_name": "d001f1dbab0246bd913220d7ab649041",
    "shop_address": "Calvuncura  2470 ",
    "shop_lat": -34.536770361275025,
    "shop_lng": -58.74265422500963,
    "nearest_supermarket": {
      "id": "37433",
      "name": "Supermercados DIA",
      "address": "Gaspar Campos 5076",
      "lat": -34.5352,
      "lng": -58.74358,
      "city": "José C. Paz",
      "province": "Buenos Aires"
    },
    "distance_km": 0.19411821779849533,
    "pedidos_en_direccion": 38,
    "total_pedidos_lider": 38
  },
  {
    "community_leader_id": "1447167df05a49698fcaba33ec3fa5da",
    "shop_name": "1447167df05a49698fcaba33ec3fa5da",
    "shop_address": "8GGP+3XH departamento 2B 0",
    "shop_lat": -34.6746277019171,
    "shop_lng": -58.46249597330326,
    "nearest_supermarket": {
      "id": "481",
      "name": "Jumbo",
      "address": "Av. Gral. Francisco Fernández de la Cruz 4602",
      "lat": -34.67464,
      "lng": -58.460373,
      "city": "Buenos Aires",
      "province": "CABA"
    },
    "distance_km": 0.19414278940136886,
    "pedidos_en_direccion": 1,
    "total_pedidos_lider": 1
  },
  {
    "community_leader_id": "a99d61fa593e4d3eb46a11c7d77ad7d4",
    "shop_name": "a99d61fa593e4d3eb46a11c7d77ad7d4",
    "shop_address": "San Luis 2844, CABA ",
    "shop_lat": -34.59970761842809,
    "shop_lng": -58.405712837123694,
    "nearest_supermarket": {
      "id": "37415",
      "name": "Supermercados DIA",
      "address": "Ecuador 762",
      "lat": -34.60109,
      "lng": -58.40703,
      "city": "Buenos Aires",
      "province": "CABA"
    },
    "distance_km": 0.19535107766749774,
    "pedidos_en_direccion": 1,
    "total_pedidos_lider": 1
  },
  {
    "community_leader_id": "5f809816ba2f4256ae4fa7dedb682e23",
    "shop_name": "5f809816ba2f4256ae4fa7dedb682e23",
    "shop_address": "Urdaneta 2960 ",
    "shop_lat": -34.73110956112683,
    "shop_lng": -58.606940441576995,
    "nearest_supermarket": {
      "id": "35097",
      "name": "Supermercados DIA",
      "address": "Av Luro 3901",
      "lat": -34.73274,
      "lng": -58.60779,
      "city": "Gregorio de Laferrere",
      "province": "Buenos Aires"
    },
    "distance_km": 0.19721980347220158,
    "pedidos_en_direccion": 77,
    "total_pedidos_lider": 77
  },
  {
    "community_leader_id": "e41c8d1526a3471da436acc399753461",
    "shop_name": "e41c8d1526a3471da436acc399753461",
    "shop_address": "Sáenz 344 ",
    "shop_lat": -34.77007035751509,
    "shop_lng": -58.64378376286836,
    "nearest_supermarket": {
      "id": "11245",
      "name": "Supermercados DIA",
      "address": "Cl Jose Maria Moreno 400",
      "lat": -34.76966,
      "lng": -58.64589,
      "city": "González Catán",
      "province": "Buenos Aires"
    },
    "distance_km": 0.19772293187257822,
    "pedidos_en_direccion": 3,
    "total_pedidos_lider": 3
  },
  {
    "community_leader_id": "60632be4185c40429b691853c5a4f8c5",
    "shop_name": "60632be4185c40429b691853c5a4f8c5",
    "shop_address": "Alcalde Benito Rivas 881 ",
    "shop_lat": -34.66694151740009,
    "shop_lng": -58.6186700857585,
    "nearest_supermarket": {
      "id": "25520",
      "name": "Supermercados DIA",
      "address": "Aguero Esquina Balcarce 935",
      "lat": -34.666176,
      "lng": -58.61668,
      "city": "Morón",
      "province": "Buenos Aires"
    },
    "distance_km": 0.20092541500118788,
    "pedidos_en_direccion": 7,
    "total_pedidos_lider": 7
  },
  {
    "community_leader_id": "d668c3fb167e4b6e92dd07623a79ae61",
    "shop_name": "d668c3fb167e4b6e92dd07623a79ae61",
    "shop_address": "Bedoya 95 ",
    "shop_lat": -34.69080648385501,
    "shop_lng": -58.62654033706205,
    "nearest_supermarket": {
      "id": "27047",
      "name": "Changomas",
      "address": "Don Bosco 5635",
      "lat": -34.689,
      "lng": -58.62641,
      "city": "Morón",
      "province": "Buenos Aires"
    },
    "distance_km": 0.2012250041508616,
    "pedidos_en_direccion": 92,
    "total_pedidos_lider": 92
  },
  {
    "community_leader_id": "370c540955fc44b2b3c43be80e9e92d6",
    "shop_name": "370c540955fc44b2b3c43be80e9e92d6",
    "shop_address": "Jacobo Watt  216",
    "shop_lat": -34.721628220514425,
    "shop_lng": -58.57290570115509,
    "nearest_supermarket": {
      "id": "11248",
      "name": "Supermercados DIA",
      "address": "Cl Cristiania 5843",
      "lat": -34.72103,
      "lng": -58.57082,
      "city": "Isidro Casanova",
      "province": "Buenos Aires"
    },
    "distance_km": 0.20189484412259692,
    "pedidos_en_direccion": 54,
    "total_pedidos_lider": 54
  },
  {
    "community_leader_id": "9bb75dabc55040feb34e20f4432fa97a",
    "shop_name": "9bb75dabc55040feb34e20f4432fa97a",
    "shop_address": "Magallanes 987",
    "shop_lat": -34.63986442330027,
    "shop_lng": -58.36442382962572,
    "nearest_supermarket": {
      "id": "31396",
      "name": "Supermercados DIA",
      "address": "Gral.Gregorio Araoz de Lamadrid 728",
      "lat": -34.638893,
      "lng": -58.36255,
      "city": "Dock Sur",
      "province": "Buenos Aires"
    },
    "distance_km": 0.20262076885423255,
    "pedidos_en_direccion": 1,
    "total_pedidos_lider": 1
  },
  {
    "community_leader_id": "b1dbbfc0d1f949af98d041443b696d25",
    "shop_name": "b1dbbfc0d1f949af98d041443b696d25",
    "shop_address": "Crucero la Argentina  1294 ",
    "shop_lat": -34.52239190774575,
    "shop_lng": -58.78888367576621,
    "nearest_supermarket": {
      "id": "25720",
      "name": "Supermercados DIA",
      "address": "Av Croacia 1196",
      "lat": -34.522503,
      "lng": -58.786667,
      "city": "José C. Paz",
      "province": "Buenos Aires"
    },
    "distance_km": 0.20345382023689546,
    "pedidos_en_direccion": 50,
    "total_pedidos_lider": 50
  },
  {
    "community_leader_id": "f5afc42b86774a7f9df655d39b662bfb",
    "shop_name": "f5afc42b86774a7f9df655d39b662bfb",
    "shop_address": "Anastacio González  5938",
    "shop_lat": -34.589225115888084,
    "shop_lng": -58.55923258494203,
    "nearest_supermarket": {
      "id": "31363",
      "name": "Supermercados DIA",
      "address": "1° de Mayo 6045",
      "lat": -34.591057,
      "lng": -58.559216,
      "city": "Villa Lynch",
      "province": "Buenos Aires"
    },
    "distance_km": 0.2037018769583965,
    "pedidos_en_direccion": 21,
    "total_pedidos_lider": 21
  },
  {
    "community_leader_id": "1711386fba6a48d89b0f45c5033ecf66",
    "shop_name": "1711386fba6a48d89b0f45c5033ecf66",
    "shop_address": "Albarellos 1636 ",
    "shop_lat": -34.697561175885056,
    "shop_lng": -58.60311334651407,
    "nearest_supermarket": {
      "id": "35039",
      "name": "Supermercados DIA",
      "address": "José Bernaldes Polledo 28",
      "lat": -34.69599,
      "lng": -58.60429,
      "city": "Rafael Castillo",
      "province": "Buenos Aires"
    },
    "distance_km": 0.20516859278638655,
    "pedidos_en_direccion": 3,
    "total_pedidos_lider": 3
  },
  {
    "community_leader_id": "d7d478b58a024d7aa7e73d2cad63103d",
    "shop_name": "d7d478b58a024d7aa7e73d2cad63103d",
    "shop_address": "Dra. Alicia Moreau de Justo 3293 ",
    "shop_lat": -34.663841454158856,
    "shop_lng": -58.51992115529841,
    "nearest_supermarket": {
      "id": "37395",
      "name": "Supermercados DIA",
      "address": "Av Rosas 275",
      "lat": -34.66354,
      "lng": -58.52214,
      "city": "Villa Insuperable",
      "province": "Buenos Aires"
    },
    "distance_km": 0.20568165105631236,
    "pedidos_en_direccion": 7,
    "total_pedidos_lider": 7
  },
  {
    "community_leader_id": "74f9dc4c08e248718f3fc3fee8110f14",
    "shop_name": "74f9dc4c08e248718f3fc3fee8110f14",
    "shop_address": "Zinny 4473 ",
    "shop_lat": -34.73982803100763,
    "shop_lng": -58.62007442659082,
    "nearest_supermarket": {
      "id": "35062",
      "name": "Supermercados DIA",
      "address": "Da Vinci 3696",
      "lat": -34.74154,
      "lng": -58.62098,
      "city": "Gregorio de Laferrere",
      "province": "Buenos Aires"
    },
    "distance_km": 0.20756821049832302,
    "pedidos_en_direccion": 82,
    "total_pedidos_lider": 82
  },
  {
    "community_leader_id": "5660b2b4462c4e59bd5f779c42851527",
    "shop_name": "5660b2b4462c4e59bd5f779c42851527",
    "shop_address": "Eduardo Costa 421 ",
    "shop_lat": -34.657186872332296,
    "shop_lng": -58.53852625221573,
    "nearest_supermarket": {
      "id": "41276",
      "name": "Supermercados DIA",
      "address": "Av. Eva Perón 299 Lomas del Mirador",
      "lat": -34.657527,
      "lng": -58.540759,
      "city": "Ramos Mejía",
      "province": ""
    },
    "distance_km": 0.20769158979829938,
    "pedidos_en_direccion": 48,
    "total_pedidos_lider": 48
  },
  {
    "community_leader_id": "a36810a5471442c2bf8d8eac78ae5b2b",
    "shop_name": "a36810a5471442c2bf8d8eac78ae5b2b",
    "shop_address": "Coronel bueras 3884 ",
    "shop_lat": -34.71731336389209,
    "shop_lng": -58.34905957816749,
    "nearest_supermarket": {
      "id": "2159",
      "name": "Changomas",
      "address": "Boulevard de los italianos 321",
      "lat": -34.71544,
      "lng": -58.34903,
      "city": "Monte Chingolo",
      "province": "Buenos Aires"
    },
    "distance_km": 0.20832610263331966,
    "pedidos_en_direccion": 128,
    "total_pedidos_lider": 128
  },
  {
    "community_leader_id": "27e4e8a5c2a44e2d85277c3016067552",
    "shop_name": "27e4e8a5c2a44e2d85277c3016067552",
    "shop_address": "Andonaegui 5554 ",
    "shop_lat": -34.76499673222425,
    "shop_lng": -58.61971938456148,
    "nearest_supermarket": {
      "id": "32393",
      "name": "Changomas",
      "address": "Ruta 3 n° 14446, La Matan",
      "lat": -34.76318,
      "lng": -58.61912,
      "city": "González Catán",
      "province": "Buenos Aires"
    },
    "distance_km": 0.2092998160079572,
    "pedidos_en_direccion": 37,
    "total_pedidos_lider": 37
  },
  {
    "community_leader_id": "7e43e5353825466dafc1bdb0321b6a7e",
    "shop_name": "7e43e5353825466dafc1bdb0321b6a7e",
    "shop_address": "Av. Coronel Leonardo Rosales  736",
    "shop_lat": -34.727322486717014,
    "shop_lng": -58.399019216016896,
    "nearest_supermarket": {
      "id": "31353",
      "name": "Supermercados DIA",
      "address": "Cl Coronel Beltran 239",
      "lat": -34.725525,
      "lng": -58.398262,
      "city": "Lanús",
      "province": "Buenos Aires"
    },
    "distance_km": 0.21151215245673202,
    "pedidos_en_direccion": 21,
    "total_pedidos_lider": 21
  },
  {
    "community_leader_id": "d2e34aab049d4cb5a61f0129a6377d2d",
    "shop_name": "d2e34aab049d4cb5a61f0129a6377d2d",
    "shop_address": "libertad 2350 ",
    "shop_lat": -34.52707753302087,
    "shop_lng": -58.49504289953455,
    "nearest_supermarket": {
      "id": "31445",
      "name": "Supermercados DIA",
      "address": "San Martin 2269",
      "lat": -34.52846,
      "lng": -58.493404,
      "city": "Vicente López",
      "province": "Buenos Aires"
    },
    "distance_km": 0.21487630295440294,
    "pedidos_en_direccion": 8,
    "total_pedidos_lider": 8
  },
  {
    "community_leader_id": "3b8b770b8e5d4652bda8c1cf6f76bcd7",
    "shop_name": "3b8b770b8e5d4652bda8c1cf6f76bcd7",
    "shop_address": "Jose Maria Paz 1438 ",
    "shop_lat": -34.54741453924193,
    "shop_lng": -58.71441391037196,
    "nearest_supermarket": {
      "id": "35134",
      "name": "Supermercados DIA",
      "address": "Av Balbin 1727",
      "lat": -34.54711,
      "lng": -58.71674,
      "city": "San Miguel (Buenos Aires)",
      "province": "Buenos Aires"
    },
    "distance_km": 0.21571334415418222,
    "pedidos_en_direccion": 4,
    "total_pedidos_lider": 4
  },
  {
    "community_leader_id": "00789489fd2445e4965960b3179bae6c",
    "shop_name": "00789489fd2445e4965960b3179bae6c",
    "shop_address": "B caveri 1770 ",
    "shop_lat": -34.57974003789644,
    "shop_lng": -58.75560796213256,
    "nearest_supermarket": {
      "id": "37388",
      "name": "Supermercados DIA",
      "address": "Cervantes 1583",
      "lat": -34.58108,
      "lng": -58.75389,
      "city": "Trujui",
      "province": "Buenos Aires"
    },
    "distance_km": 0.2166495213911038,
    "pedidos_en_direccion": 8,
    "total_pedidos_lider": 8
  },
  {
    "community_leader_id": "c2e9e60dcf9e420b98a589833f9e622c",
    "shop_name": "c2e9e60dcf9e420b98a589833f9e622c",
    "shop_address": "Pío Baroja 63 ",
    "shop_lat": -34.73305639877015,
    "shop_lng": -58.43104402963249,
    "nearest_supermarket": {
      "id": "26362",
      "name": "Supermercados DIA",
      "address": "Av M. Rodriguez y G. Mistral 950",
      "lat": -34.73284,
      "lng": -58.428665,
      "city": "Lomas de Zamora",
      "province": "Buenos Aires"
    },
    "distance_km": 0.2187276762764752,
    "pedidos_en_direccion": 9,
    "total_pedidos_lider": 9
  },
  {
    "community_leader_id": "38f64d697bdb4915addb393e9829c547",
    "shop_name": "38f64d697bdb4915addb393e9829c547",
    "shop_address": "Matheu 3514  ",
    "shop_lat": -34.5743210239889,
    "shop_lng": -58.53744935334571,
    "nearest_supermarket": {
      "id": "35531",
      "name": "Supermercados DIA",
      "address": "Ramon Carrillo 2250",
      "lat": -34.57515,
      "lng": -58.53963,
      "city": "San Martín",
      "province": "Buenos Aires"
    },
    "distance_km": 0.21990400781261787,
    "pedidos_en_direccion": 1,
    "total_pedidos_lider": 1
  },
  {
    "community_leader_id": "8a85215b7b9e4677b77949547519f628",
    "shop_name": "8a85215b7b9e4677b77949547519f628",
    "shop_address": "Pedro M. Obligado  3334",
    "shop_lat": -34.748497487255875,
    "shop_lng": -58.59097027619218,
    "nearest_supermarket": {
      "id": "26375",
      "name": "Supermercados DIA",
      "address": "Cl Magnasco 3147",
      "lat": -34.74806,
      "lng": -58.58861,
      "city": "Gregorio de Laferrere",
      "province": "Buenos Aires"
    },
    "distance_km": 0.2210651766099188,
    "pedidos_en_direccion": 82,
    "total_pedidos_lider": 82
  },
  {
    "community_leader_id": "c4a5bee3e53d47c0aab6d0b63c17e1ad",
    "shop_name": "c4a5bee3e53d47c0aab6d0b63c17e1ad",
    "shop_address": "Cafayate 5290",
    "shop_lat": -34.68742207493828,
    "shop_lng": -58.46465121665857,
    "nearest_supermarket": {
      "id": "361",
      "name": "Coto",
      "address": "Villa Lugano Soldado de la Frontera 5258",
      "lat": -34.6858,
      "lng": -58.4632,
      "city": "Buenos Aires",
      "province": "CABA"
    },
    "distance_km": 0.22391624532241186,
    "pedidos_en_direccion": 4,
    "total_pedidos_lider": 4
  },
  {
    "community_leader_id": "d20b2ddcb59c4221b047490e52cb780a",
    "shop_name": "d20b2ddcb59c4221b047490e52cb780a",
    "shop_address": "Cnel. Charlone  1155",
    "shop_lat": -34.54349609814432,
    "shop_lng": -58.70945779039699,
    "nearest_supermarket": {
      "id": "40616",
      "name": "Diarco",
      "address": "Sarmiento 1641",
      "lat": -34.543056,
      "lng": -58.711857,
      "city": "San Miguel (Buenos Aires)",
      "province": "Buenos Aires"
    },
    "distance_km": 0.22512921534919675,
    "pedidos_en_direccion": 2,
    "total_pedidos_lider": 2
  },
  {
    "community_leader_id": "7e9892737d21446e9e8e8242732c3fb0",
    "shop_name": "7e9892737d21446e9e8e8242732c3fb0",
    "shop_address": "Padre Roqueta 1165 ",
    "shop_lat": -34.46065613675792,
    "shop_lng": -58.77306521030936,
    "nearest_supermarket": {
      "id": "31483",
      "name": "Supermercados DIA",
      "address": "Hip.Irigoyen 465",
      "lat": -34.46131,
      "lng": -58.775402,
      "city": "Manuel Alberti",
      "province": "Buenos Aires"
    },
    "distance_km": 0.2262413826495203,
    "pedidos_en_direccion": 85,
    "total_pedidos_lider": 86
  },
  {
    "community_leader_id": "8fc246d692364328809f9c9ee5ce71bf",
    "shop_name": "8fc246d692364328809f9c9ee5ce71bf",
    "shop_address": "Comodoro Py 3348 ",
    "shop_lat": -34.75256276621966,
    "shop_lng": -58.5861263557936,
    "nearest_supermarket": {
      "id": "35043",
      "name": "Supermercados DIA",
      "address": "Honorio Luque 6380",
      "lat": -34.7507,
      "lng": -58.58507,
      "city": "Gregorio de Laferrere",
      "province": "Buenos Aires"
    },
    "distance_km": 0.22851052629610816,
    "pedidos_en_direccion": 38,
    "total_pedidos_lider": 38
  },
  {
    "community_leader_id": "136bccb9d1db4d5da9f57af678b7d0ce",
    "shop_name": "136bccb9d1db4d5da9f57af678b7d0ce",
    "shop_address": "Rafael Urdaneta 2380 ",
    "shop_lat": -34.727197657178436,
    "shop_lng": -58.60207399313741,
    "nearest_supermarket": {
      "id": "3791",
      "name": "Supermayorista Vital",
      "address": "RN3 Km. Nº25, Laferrere",
      "lat": -34.72545,
      "lng": -58.60074,
      "city": "Buenos Aires",
      "province": "CABA"
    },
    "distance_km": 0.22940585281659406,
    "pedidos_en_direccion": 116,
    "total_pedidos_lider": 116
  },
  {
    "community_leader_id": "639274eeff774d238960c6888c32f80e",
    "shop_name": "639274eeff774d238960c6888c32f80e",
    "shop_address": "Cabildo 347 ",
    "shop_lat": -34.645042788401504,
    "shop_lng": -58.61965748915994,
    "nearest_supermarket": {
      "id": "25526",
      "name": "Supermercados DIA",
      "address": "Independencia 173",
      "lat": -34.64679,
      "lng": -58.618313,
      "city": "Morón",
      "province": "Buenos Aires"
    },
    "distance_km": 0.2299390107167345,
    "pedidos_en_direccion": 50,
    "total_pedidos_lider": 340
  },
  {
    "community_leader_id": "113fbbc9bfb44095bc73a792e25caa30",
    "shop_name": "113fbbc9bfb44095bc73a792e25caa30",
    "shop_address": "Jofre 895 ",
    "shop_lat": -34.69811407727568,
    "shop_lng": -58.6231116161607,
    "nearest_supermarket": {
      "id": "11274",
      "name": "Supermercados DIA",
      "address": "Santa Cruz 1038",
      "lat": -34.699703,
      "lng": -58.62473,
      "city": "Rafael Castillo",
      "province": "Buenos Aires"
    },
    "distance_km": 0.2304465195595852,
    "pedidos_en_direccion": 380,
    "total_pedidos_lider": 380
  },
  {
    "community_leader_id": "23ae1cd6debb4b27af918574b40739d6",
    "shop_name": "23ae1cd6debb4b27af918574b40739d6",
    "shop_address": "LVD, Güemes 1420 ",
    "shop_lat": -34.53912761463853,
    "shop_lng": -58.72007717841273,
    "nearest_supermarket": {
      "id": "37426",
      "name": "Supermercados DIA",
      "address": "Avenida de Mayo 1464",
      "lat": -34.537155,
      "lng": -58.719166,
      "city": "San Miguel (Buenos Aires)",
      "province": "Buenos Aires"
    },
    "distance_km": 0.23468669212185653,
    "pedidos_en_direccion": 1,
    "total_pedidos_lider": 1
  },
  {
    "community_leader_id": "becb9698134b491c924eb006bf0b4520",
    "shop_name": "becb9698134b491c924eb006bf0b4520",
    "shop_address": "Andonaegui 5515 ",
    "shop_lat": -34.76510664894639,
    "shop_lng": -58.62022281658303,
    "nearest_supermarket": {
      "id": "32393",
      "name": "Changomas",
      "address": "Ruta 3 n° 14446, La Matan",
      "lat": -34.76318,
      "lng": -58.61912,
      "city": "González Catán",
      "province": "Buenos Aires"
    },
    "distance_km": 0.23673708085246853,
    "pedidos_en_direccion": 20,
    "total_pedidos_lider": 20
  },
  {
    "community_leader_id": "fb40a8cc34ba4ab6bb230cc8ae926107",
    "shop_name": "fb40a8cc34ba4ab6bb230cc8ae926107",
    "shop_address": "Europa 327 ",
    "shop_lat": -34.658791431292606,
    "shop_lng": -58.53855344619597,
    "nearest_supermarket": {
      "id": "11254",
      "name": "Supermercados DIA",
      "address": "Cl Eva Peron 297",
      "lat": -34.65771,
      "lng": -58.54081,
      "city": "Ramos Mejía",
      "province": "Buenos Aires"
    },
    "distance_km": 0.23886933276968111,
    "pedidos_en_direccion": 1,
    "total_pedidos_lider": 1
  },
  {
    "community_leader_id": "78584c88cac244909a4fb1ba2e4439dc",
    "shop_name": "78584c88cac244909a4fb1ba2e4439dc",
    "shop_address": "La zarza 116 ",
    "shop_lat": -34.72001367083967,
    "shop_lng": -58.573465203131484,
    "nearest_supermarket": {
      "id": "35120",
      "name": "Supermercados DIA",
      "address": "Av Cristiania 5147",
      "lat": -34.718,
      "lng": -58.57449,
      "city": "Isidro Casanova",
      "province": "Buenos Aires"
    },
    "distance_km": 0.24271083853269604,
    "pedidos_en_direccion": 62,
    "total_pedidos_lider": 62
  },
  {
    "community_leader_id": "a91408e7679e424e805d444193a83544",
    "shop_name": "a91408e7679e424e805d444193a83544",
    "shop_address": "La Paz 6198 ",
    "shop_lat": -34.693977669290476,
    "shop_lng": -58.60535055619829,
    "nearest_supermarket": {
      "id": "35039",
      "name": "Supermercados DIA",
      "address": "José Bernaldes Polledo 28",
      "lat": -34.69599,
      "lng": -58.60429,
      "city": "Rafael Castillo",
      "province": "Buenos Aires"
    },
    "distance_km": 0.24386517571739785,
    "pedidos_en_direccion": 113,
    "total_pedidos_lider": 113
  },
  {
    "community_leader_id": "c9a1a00656714be491b23335198a2450",
    "shop_name": "c9a1a00656714be491b23335198a2450",
    "shop_address": "Ruy Díaz 3710 ",
    "shop_lat": -34.688504908081775,
    "shop_lng": -58.62901388047821,
    "nearest_supermarket": {
      "id": "27047",
      "name": "Changomas",
      "address": "Don Bosco 5635",
      "lat": -34.689,
      "lng": -58.62641,
      "city": "Morón",
      "province": "Buenos Aires"
    },
    "distance_km": 0.2443566593559143,
    "pedidos_en_direccion": 19,
    "total_pedidos_lider": 19
  },
  {
    "community_leader_id": "472e59f49f61485cbe11c01b11e68b24",
    "shop_name": "472e59f49f61485cbe11c01b11e68b24",
    "shop_address": "Felix mendelsohn 456 ",
    "shop_lat": -34.6381230994116,
    "shop_lng": -58.73518932391332,
    "nearest_supermarket": {
      "id": "31346",
      "name": "Supermercados DIA",
      "address": "Av Zapiola 529",
      "lat": -34.6387,
      "lng": -58.73777,
      "city": "Merlo (Buenos Aires)",
      "province": "Buenos Aires"
    },
    "distance_km": 0.2446558877397248,
    "pedidos_en_direccion": 12,
    "total_pedidos_lider": 12
  },
  {
    "community_leader_id": "f6f1c1e29134418dae958bf034d6a3a9",
    "shop_name": "f6f1c1e29134418dae958bf034d6a3a9",
    "shop_address": "Paysandú 1975/77 ",
    "shop_lat": -34.602077982250776,
    "shop_lng": -58.457471648842976,
    "nearest_supermarket": {
      "id": "25667",
      "name": "Supermercados DIA",
      "address": "Paysandu 1816",
      "lat": -34.604027,
      "lng": -58.458733,
      "city": "Florida (Buenos Aires)",
      "province": "Buenos Aires"
    },
    "distance_km": 0.24555161081139407,
    "pedidos_en_direccion": 3,
    "total_pedidos_lider": 3
  },
  {
    "community_leader_id": "7f628d534d5c416d8bfb65e1c5d2aeb9",
    "shop_name": "7f628d534d5c416d8bfb65e1c5d2aeb9",
    "shop_address": "San Juan  2260",
    "shop_lat": -34.65901830739305,
    "shop_lng": -58.72606046226357,
    "nearest_supermarket": {
      "id": "31486",
      "name": "Supermercados DIA",
      "address": "Hipolito Irigoyen 357",
      "lat": -34.6612,
      "lng": -58.72654,
      "city": "Merlo (Buenos Aires)",
      "province": "Buenos Aires"
    },
    "distance_km": 0.2465260688199493,
    "pedidos_en_direccion": 19,
    "total_pedidos_lider": 19
  },
  {
    "community_leader_id": "499b8cd029724cfebc51622c5a0fbc5d",
    "shop_name": "499b8cd029724cfebc51622c5a0fbc5d",
    "shop_address": "Ruy Díaz 3710 ",
    "shop_lat": -34.6885032900165,
    "shop_lng": -58.62904367274225,
    "nearest_supermarket": {
      "id": "27047",
      "name": "Changomas",
      "address": "Don Bosco 5635",
      "lat": -34.689,
      "lng": -58.62641,
      "city": "Morón",
      "province": "Buenos Aires"
    },
    "distance_km": 0.24705148312755384,
    "pedidos_en_direccion": 5,
    "total_pedidos_lider": 5
  },
  {
    "community_leader_id": "7da40be94d9c4f38b53ab56230c32a7f",
    "shop_name": "7da40be94d9c4f38b53ab56230c32a7f",
    "shop_address": "París 1454 ",
    "shop_lat": -34.6919684041533,
    "shop_lng": -58.605332371229714,
    "nearest_supermarket": {
      "id": "11263",
      "name": "Supermercados DIA",
      "address": "Cl Cristiania 1400",
      "lat": -34.692802,
      "lng": -58.607838,
      "city": "Rafael Castillo",
      "province": "Buenos Aires"
    },
    "distance_km": 0.24712337891125516,
    "pedidos_en_direccion": 21,
    "total_pedidos_lider": 21
  },
  {
    "community_leader_id": "ce205972aabf4f188c15829f2a070e7d",
    "shop_name": "ce205972aabf4f188c15829f2a070e7d",
    "shop_address": "Ramón Falcon 6075 ",
    "shop_lat": -34.694905058258406,
    "shop_lng": -58.60192803536142,
    "nearest_supermarket": {
      "id": "35039",
      "name": "Supermercados DIA",
      "address": "José Bernaldes Polledo 28",
      "lat": -34.69599,
      "lng": -58.60429,
      "city": "Rafael Castillo",
      "province": "Buenos Aires"
    },
    "distance_km": 0.24735292333706912,
    "pedidos_en_direccion": 3,
    "total_pedidos_lider": 3
  },
  {
    "community_leader_id": "cc2752a11ec94237acafe4cc136ec299",
    "shop_name": "cc2752a11ec94237acafe4cc136ec299",
    "shop_address": "Combate de San Lorenzo 1878",
    "shop_lat": -34.48445169405843,
    "shop_lng": -58.73162311094939,
    "nearest_supermarket": {
      "id": "41583",
      "name": "Supermercados DIA",
      "address": "Ricardo Rojas 1423",
      "lat": -34.485328,
      "lng": -58.729135,
      "city": "Grand Bourg",
      "province": ""
    },
    "distance_km": 0.2479935483993124,
    "pedidos_en_direccion": 49,
    "total_pedidos_lider": 49
  },
  {
    "community_leader_id": "751f0514754f4044a960d290a5f34bb3",
    "shop_name": "751f0514754f4044a960d290a5f34bb3",
    "shop_address": "Jorge newbery 1052 ",
    "shop_lat": -34.519893455627965,
    "shop_lng": -58.73983950580687,
    "nearest_supermarket": {
      "id": "37438",
      "name": "Supermercados DIA",
      "address": "Avenida Presidente Peron 4279",
      "lat": -34.52215,
      "lng": -58.7399,
      "city": "José C. Paz",
      "province": "Buenos Aires"
    },
    "distance_km": 0.2509774862588876,
    "pedidos_en_direccion": 5,
    "total_pedidos_lider": 5
  },
  {
    "community_leader_id": "0cc345c6436048d5a73fc41d2f0e7a67",
    "shop_name": "0cc345c6436048d5a73fc41d2f0e7a67",
    "shop_address": "Juan José Pasó 1296 ",
    "shop_lat": -34.75025018090926,
    "shop_lng": -58.41360944302831,
    "nearest_supermarket": {
      "id": "4497",
      "name": "Carrefour",
      "address": "Las Heras 1163",
      "lat": -34.74899,
      "lng": -58.41128,
      "city": "Lomas de Zamora",
      "province": "Buenos Aires"
    },
    "distance_km": 0.25481374745528723,
    "pedidos_en_direccion": 3,
    "total_pedidos_lider": 3
  },
  {
    "community_leader_id": "b1127af363a34b55821204f85f473faa",
    "shop_name": "b1127af363a34b55821204f85f473faa",
    "shop_address": "Ituzaingo 5972 ",
    "shop_lat": -34.69109395442397,
    "shop_lng": -58.605956566665114,
    "nearest_supermarket": {
      "id": "11263",
      "name": "Supermercados DIA",
      "address": "Cl Cristiania 1400",
      "lat": -34.692802,
      "lng": -58.607838,
      "city": "Rafael Castillo",
      "province": "Buenos Aires"
    },
    "distance_km": 0.2562434920846998,
    "pedidos_en_direccion": 318,
    "total_pedidos_lider": 318
  },
  {
    "community_leader_id": "08c61361197e4e9b876f631617c7f75e",
    "shop_name": "08c61361197e4e9b876f631617c7f75e",
    "shop_address": "Mi esperanza 4335",
    "shop_lat": -34.7157035315188,
    "shop_lng": -58.574847400184154,
    "nearest_supermarket": {
      "id": "35120",
      "name": "Supermercados DIA",
      "address": "Av Cristiania 5147",
      "lat": -34.718,
      "lng": -58.57449,
      "city": "Isidro Casanova",
      "province": "Buenos Aires"
    },
    "distance_km": 0.2574365717697118,
    "pedidos_en_direccion": 1022,
    "total_pedidos_lider": 1022
  },
  {
    "community_leader_id": "1bb42d80348d4f7eafedc19ab7bb21d1",
    "shop_name": "1bb42d80348d4f7eafedc19ab7bb21d1",
    "shop_address": "Cobo  6052",
    "shop_lat": -34.76423442851398,
    "shop_lng": -58.60762590175744,
    "nearest_supermarket": {
      "id": "35041",
      "name": "Supermercados DIA",
      "address": "Cobo 6241",
      "lat": -34.76607,
      "lng": -58.6059,
      "city": "González Catán",
      "province": "Buenos Aires"
    },
    "distance_km": 0.2579037065889411,
    "pedidos_en_direccion": 43,
    "total_pedidos_lider": 43
  },
  {
    "community_leader_id": "07997253b62049c8818ee347d1d6a5eb",
    "shop_name": "07997253b62049c8818ee347d1d6a5eb",
    "shop_address": "Asamblea 6034 ",
    "shop_lat": -34.718369155321575,
    "shop_lng": -58.57169076040567,
    "nearest_supermarket": {
      "id": "35120",
      "name": "Supermercados DIA",
      "address": "Av Cristiania 5147",
      "lat": -34.718,
      "lng": -58.57449,
      "city": "Isidro Casanova",
      "province": "Buenos Aires"
    },
    "distance_km": 0.2591173176352944,
    "pedidos_en_direccion": 6,
    "total_pedidos_lider": 6
  },
  {
    "community_leader_id": "26dd4465ea7e42ee842b1086c107d18c",
    "shop_name": "26dd4465ea7e42ee842b1086c107d18c",
    "shop_address": "Zeballos  3343",
    "shop_lat": -34.64063833368936,
    "shop_lng": -58.82881664606882,
    "nearest_supermarket": {
      "id": "11252",
      "name": "Supermercados DIA",
      "address": "Pastorini 2009",
      "lat": -34.63987,
      "lng": -58.82612,
      "city": "La Reja",
      "province": "Buenos Aires"
    },
    "distance_km": 0.2610751868248492,
    "pedidos_en_direccion": 185,
    "total_pedidos_lider": 185
  },
  {
    "community_leader_id": "5e9b0f6440624c12b13950fc985bf2c1",
    "shop_name": "5e9b0f6440624c12b13950fc985bf2c1",
    "shop_address": "Terrero 224 ",
    "shop_lat": -34.69811666471428,
    "shop_lng": -58.60551474877359,
    "nearest_supermarket": {
      "id": "35039",
      "name": "Supermercados DIA",
      "address": "José Bernaldes Polledo 28",
      "lat": -34.69599,
      "lng": -58.60429,
      "city": "Rafael Castillo",
      "province": "Buenos Aires"
    },
    "distance_km": 0.26164293155717483,
    "pedidos_en_direccion": 11,
    "total_pedidos_lider": 11
  },
  {
    "community_leader_id": "78a696aa0598400ca344e02a5cdcb3a3",
    "shop_name": "78a696aa0598400ca344e02a5cdcb3a3",
    "shop_address": "La yerra 1765 ",
    "shop_lat": -34.70427793413979,
    "shop_lng": -58.61970926158469,
    "nearest_supermarket": {
      "id": "35070",
      "name": "Supermercados DIA",
      "address": "Av Carlos Casares 1244",
      "lat": -34.70193,
      "lng": -58.61992,
      "city": "Rafael Castillo",
      "province": "Buenos Aires"
    },
    "distance_km": 0.26178815427332064,
    "pedidos_en_direccion": 116,
    "total_pedidos_lider": 116
  },
  {
    "community_leader_id": "23b7ad0b5b154e3dad1115108b0b1e83",
    "shop_name": "23b7ad0b5b154e3dad1115108b0b1e83",
    "shop_address": "Pringles  1491",
    "shop_lat": -34.53879850655873,
    "shop_lng": -58.721249737098915,
    "nearest_supermarket": {
      "id": "37426",
      "name": "Supermercados DIA",
      "address": "Avenida de Mayo 1464",
      "lat": -34.537155,
      "lng": -58.719166,
      "city": "San Miguel (Buenos Aires)",
      "province": "Buenos Aires"
    },
    "distance_km": 0.2642468811316712,
    "pedidos_en_direccion": 91,
    "total_pedidos_lider": 91
  },
  {
    "community_leader_id": "1452f4e28ef44db6aca7005d59787ea6",
    "shop_name": "1452f4e28ef44db6aca7005d59787ea6",
    "shop_address": "Coronel francisco sayos 3083 ",
    "shop_lat": -34.68023201074108,
    "shop_lng": -58.42038579509475,
    "nearest_supermarket": {
      "id": "35046",
      "name": "Supermercados DIA",
      "address": "Viamonte2974",
      "lat": -34.68261,
      "lng": -58.42031,
      "city": "Valentín Alsina",
      "province": "Buenos Aires"
    },
    "distance_km": 0.26451115326178937,
    "pedidos_en_direccion": 28,
    "total_pedidos_lider": 28
  },
  {
    "community_leader_id": "b740dc5c827f408590a35308691f7704",
    "shop_name": "b740dc5c827f408590a35308691f7704",
    "shop_address": "Lascano 5844 ",
    "shop_lat": -34.69885151080472,
    "shop_lng": -58.58780859878782,
    "nearest_supermarket": {
      "id": "35019",
      "name": "Supermercados DIA",
      "address": "Republica de Portugal 2843",
      "lat": -34.70078,
      "lng": -58.58611,
      "city": "Isidro Casanova",
      "province": "Buenos Aires"
    },
    "distance_km": 0.2647577029066633,
    "pedidos_en_direccion": 2,
    "total_pedidos_lider": 2
  },
  {
    "community_leader_id": "2c2ab623304a412d992da128e7db5562",
    "shop_name": "2c2ab623304a412d992da128e7db5562",
    "shop_address": "Florentino Ameghino 518 ",
    "shop_lat": -34.65896028239274,
    "shop_lng": -58.364385935095726,
    "nearest_supermarket": {
      "id": "31480",
      "name": "Supermercados DIA",
      "address": "25 de May 0119",
      "lat": -34.661327,
      "lng": -58.36405,
      "city": "Avellaneda (Buenos Aires)",
      "province": "Buenos Aires"
    },
    "distance_km": 0.2649545510660248,
    "pedidos_en_direccion": 17,
    "total_pedidos_lider": 17
  },
  {
    "community_leader_id": "afcf2d58c8a845a69c293db2e26e6458",
    "shop_name": "afcf2d58c8a845a69c293db2e26e6458",
    "shop_address": "Paso 2268 ",
    "shop_lat": -34.655967941335575,
    "shop_lng": -58.5305490000014,
    "nearest_supermarket": {
      "id": "35104",
      "name": "Supermercados DIA",
      "address": "Av Mosconi 242",
      "lat": -34.658344,
      "lng": -58.530865,
      "city": "Lomas del Mirador",
      "province": "Buenos Aires"
    },
    "distance_km": 0.26578191351628516,
    "pedidos_en_direccion": 6,
    "total_pedidos_lider": 6
  },
  {
    "community_leader_id": "b30542608e954a3f85ba2f0f7f0d1263",
    "shop_name": "b30542608e954a3f85ba2f0f7f0d1263",
    "shop_address": "Bavio 6028 ",
    "shop_lat": -34.76429076816312,
    "shop_lng": -58.6217429214898,
    "nearest_supermarket": {
      "id": "32393",
      "name": "Changomas",
      "address": "Ruta 3 n° 14446, La Matan",
      "lat": -34.76318,
      "lng": -58.61912,
      "city": "González Catán",
      "province": "Buenos Aires"
    },
    "distance_km": 0.2695596069725512,
    "pedidos_en_direccion": 33,
    "total_pedidos_lider": 33
  },
  {
    "community_leader_id": "78e3703a14d145a68624454df59b8869",
    "shop_name": "78e3703a14d145a68624454df59b8869",
    "shop_address": "Ipela  2033",
    "shop_lat": -34.7367416247245,
    "shop_lng": -58.58367049999999,
    "nearest_supermarket": {
      "id": "26376",
      "name": "Supermercados DIA",
      "address": "Cl Soldado Sosa 5460",
      "lat": -34.734715,
      "lng": -58.585308,
      "city": "Rafael Castillo",
      "province": "Buenos Aires"
    },
    "distance_km": 0.2705046131460603,
    "pedidos_en_direccion": 489,
    "total_pedidos_lider": 489
  },
  {
    "community_leader_id": "d8e518a206a04a27a7b37e25108051c5",
    "shop_name": "d8e518a206a04a27a7b37e25108051c5",
    "shop_address": "Martin Coronado 2960 ",
    "shop_lat": -34.74206956462363,
    "shop_lng": -58.592628513855736,
    "nearest_supermarket": {
      "id": "35096",
      "name": "Supermercados DIA",
      "address": "Av Luro 5530",
      "lat": -34.74451,
      "lng": -58.59247,
      "city": "Gregorio de Laferrere",
      "province": "Buenos Aires"
    },
    "distance_km": 0.2717502699523719,
    "pedidos_en_direccion": 10,
    "total_pedidos_lider": 10
  },
  {
    "community_leader_id": "e9b30cb555eb4b288ca9e119487befec",
    "shop_name": "e9b30cb555eb4b288ca9e119487befec",
    "shop_address": "Thames 975 ",
    "shop_lat": -34.59211470190878,
    "shop_lng": -58.43769563105797,
    "nearest_supermarket": {
      "id": "31428",
      "name": "Supermercados DIA",
      "address": "Av Cordoba 5101",
      "lat": -34.59067,
      "lng": -58.435287,
      "city": "Belgrano (Buenos Aires)",
      "province": "CABA"
    },
    "distance_km": 0.2727973775132623,
    "pedidos_en_direccion": 552,
    "total_pedidos_lider": 552
  },
  {
    "community_leader_id": "c8e0f0033f0842fdbf7f4a15d584cd5e",
    "shop_name": "c8e0f0033f0842fdbf7f4a15d584cd5e",
    "shop_address": "Fournier 5258 ",
    "shop_lat": -34.752957499001056,
    "shop_lng": -58.61530902226884,
    "nearest_supermarket": {
      "id": "31489",
      "name": "Supermercados DIA",
      "address": "Cl Calderon de la Barca 4948",
      "lat": -34.75475,
      "lng": -58.61326,
      "city": "Gregorio de Laferrere",
      "province": "Buenos Aires"
    },
    "distance_km": 0.2734403512381264,
    "pedidos_en_direccion": 3,
    "total_pedidos_lider": 3
  },
  {
    "community_leader_id": "44f12907d55f4e8c993cf2c1709f5abe",
    "shop_name": "44f12907d55f4e8c993cf2c1709f5abe",
    "shop_address": "Arequipa 2031",
    "shop_lat": -34.578968207963754,
    "shop_lng": -58.38904078782659,
    "nearest_supermarket": {
      "id": "38983",
      "name": "Diarco",
      "address": "Av. Ramón Castillo 1721",
      "lat": -34.57842,
      "lng": -58.38612,
      "city": "Recoleta",
      "province": "CABA"
    },
    "distance_km": 0.2742641947243784,
    "pedidos_en_direccion": 63,
    "total_pedidos_lider": 522
  },
  {
    "community_leader_id": "93cfb744016b484a87058a98c003862e",
    "shop_name": "93cfb744016b484a87058a98c003862e",
    "shop_address": "25 de mayo 64 pb b ",
    "shop_lat": -34.70815633978842,
    "shop_lng": -58.39248304338789,
    "nearest_supermarket": {
      "id": "40087",
      "name": "Supermercados DIA",
      "address": "Anatole France2042",
      "lat": -34.7091,
      "lng": -58.38971,
      "city": "Lanús",
      "province": "Buenos Aires"
    },
    "distance_km": 0.2743403519909319,
    "pedidos_en_direccion": 73,
    "total_pedidos_lider": 73
  },
  {
    "community_leader_id": "cc12dc96a08a4c5bb8d9a53ecb550337",
    "shop_name": "cc12dc96a08a4c5bb8d9a53ecb550337",
    "shop_address": "garibaldi 4887 ",
    "shop_lat": -34.46869300183819,
    "shop_lng": -58.58395932737552,
    "nearest_supermarket": {
      "id": "41289",
      "name": "Supermercados DIA",
      "address": "Av. Avellaneda 4801",
      "lat": -34.466302,
      "lng": -58.584756,
      "city": "San Fernando",
      "province": ""
    },
    "distance_km": 0.2757162294768604,
    "pedidos_en_direccion": 1,
    "total_pedidos_lider": 1
  },
  {
    "community_leader_id": "8f1a9773a6fb48d3869a903cad7376f3",
    "shop_name": "8f1a9773a6fb48d3869a903cad7376f3",
    "shop_address": "Los Andes  84",
    "shop_lat": -34.704695355153596,
    "shop_lng": -58.29862288483814,
    "nearest_supermarket": {
      "id": "35090",
      "name": "Supermercados DIA",
      "address": "San Martin 1076",
      "lat": -34.70392,
      "lng": -58.29574,
      "city": "Don Bosco",
      "province": "Buenos Aires"
    },
    "distance_km": 0.2772788931245699,
    "pedidos_en_direccion": 5,
    "total_pedidos_lider": 5
  },
  {
    "community_leader_id": "2bda447a1aa546fe9731e5c46959f119",
    "shop_name": "2bda447a1aa546fe9731e5c46959f119",
    "shop_address": "Necochea 2786 ",
    "shop_lat": -34.6331451369026,
    "shop_lng": -58.78028941182287,
    "nearest_supermarket": {
      "id": "25522",
      "name": "Supermercados DIA",
      "address": "Av Libertador 1501",
      "lat": -34.633533,
      "lng": -58.783287,
      "city": "Moreno",
      "province": "Buenos Aires"
    },
    "distance_km": 0.2776252398685962,
    "pedidos_en_direccion": 121,
    "total_pedidos_lider": 121
  },
  {
    "community_leader_id": "6b419285eaf9435bae083e60c400c4c3",
    "shop_name": "6b419285eaf9435bae083e60c400c4c3",
    "shop_address": "Jose Marti 83",
    "shop_lat": -34.63255921435354,
    "shop_lng": -58.47193169927657,
    "nearest_supermarket": {
      "id": "27386",
      "name": "Coto",
      "address": "Av San Pedrito 72",
      "lat": -34.63169,
      "lng": -58.46903,
      "city": "Floresta",
      "province": "CABA"
    },
    "distance_km": 0.28253193409071314,
    "pedidos_en_direccion": 8,
    "total_pedidos_lider": 8
  },
  {
    "community_leader_id": "c76c4ea67b90476ba9ab3f8c41f218ca",
    "shop_name": "c76c4ea67b90476ba9ab3f8c41f218ca",
    "shop_address": "San Pablo 1073 ",
    "shop_lat": -34.66792876876921,
    "shop_lng": -58.81623827032131,
    "nearest_supermarket": {
      "id": "11262",
      "name": "Supermercados DIA",
      "address": "J.Alvarez E/San Luis y To 2669",
      "lat": -34.66659,
      "lng": -58.813602,
      "city": "Moreno",
      "province": "Buenos Aires"
    },
    "distance_km": 0.28335327681357136,
    "pedidos_en_direccion": 26,
    "total_pedidos_lider": 26
  },
  {
    "community_leader_id": "967e8035eba9487aa5ed279f726134c7",
    "shop_name": "967e8035eba9487aa5ed279f726134c7",
    "shop_address": "Dr. Emilio Cardeza  121",
    "shop_lat": -34.81747213409678,
    "shop_lng": -58.46522332188645,
    "nearest_supermarket": {
      "id": "35052",
      "name": "Supermercados DIA",
      "address": "Hipolito Yrigoyen 164",
      "lat": -34.81511,
      "lng": -58.46639,
      "city": "El Jagüel",
      "province": "Buenos Aires"
    },
    "distance_km": 0.2834295408299206,
    "pedidos_en_direccion": 1,
    "total_pedidos_lider": 1
  },
  {
    "community_leader_id": "fd25cd62c024455488ef93d3ea254664",
    "shop_name": "fd25cd62c024455488ef93d3ea254664",
    "shop_address": "Almafuerte  1855 ",
    "shop_lat": -34.736566087923585,
    "shop_lng": -58.407732435279655,
    "nearest_supermarket": {
      "id": "38774",
      "name": "Disco",
      "address": "Vieytes 1042 - Banfield",
      "lat": -34.73875,
      "lng": -58.40937,
      "city": "Banfield",
      "province": "Buenos Aires"
    },
    "distance_km": 0.2852400929602817,
    "pedidos_en_direccion": 31,
    "total_pedidos_lider": 31
  },
  {
    "community_leader_id": "e3264b41ebfb4af8ab9e3c7036ff80d6",
    "shop_name": "e3264b41ebfb4af8ab9e3c7036ff80d6",
    "shop_address": "Magnasco 6847 ",
    "shop_lat": -34.7741922234979,
    "shop_lng": -58.618872047023075,
    "nearest_supermarket": {
      "id": "385",
      "name": "Coto",
      "address": "Ruta Nacional 3,gonzalez Catan,buenos Aires 4440",
      "lat": -34.774826,
      "lng": -58.62193,
      "city": "González Catán",
      "province": "Buenos Aires"
    },
    "distance_km": 0.2880543475523976,
    "pedidos_en_direccion": 158,
    "total_pedidos_lider": 158
  },
  {
    "community_leader_id": "468d54aca85c4947989ba027fcdcccfa",
    "shop_name": "468d54aca85c4947989ba027fcdcccfa",
    "shop_address": "Doctor Alfredo Palacios 3467 ",
    "shop_lat": -34.66720608685902,
    "shop_lng": -58.41135246282038,
    "nearest_supermarket": {
      "id": "25542",
      "name": "Supermercados DIA",
      "address": "Pte J. D. Peron 3241",
      "lat": -34.669785,
      "lng": -58.411045,
      "city": "Valentín Alsina",
      "province": "Buenos Aires"
    },
    "distance_km": 0.2881373328502794,
    "pedidos_en_direccion": 10,
    "total_pedidos_lider": 10
  },
  {
    "community_leader_id": "2ef08c18743f471d8d516911e72a02fc",
    "shop_name": "2ef08c18743f471d8d516911e72a02fc",
    "shop_address": "Alpaca 2016 ",
    "shop_lat": -34.580507297533295,
    "shop_lng": -58.38802382989889,
    "nearest_supermarket": {
      "id": "38983",
      "name": "Diarco",
      "address": "Av. Ramón Castillo 1721",
      "lat": -34.57842,
      "lng": -58.38612,
      "city": "Recoleta",
      "province": "CABA"
    },
    "distance_km": 0.2902563356728816,
    "pedidos_en_direccion": 1,
    "total_pedidos_lider": 1
  },
  {
    "community_leader_id": "ce5e49fc901d43998177bdc3f9f49d06",
    "shop_name": "ce5e49fc901d43998177bdc3f9f49d06",
    "shop_address": "Sopena López 580 ",
    "shop_lat": -34.72087981431955,
    "shop_lng": -58.78817594362174,
    "nearest_supermarket": {
      "id": "35054",
      "name": "Supermercados DIA",
      "address": "Figueroa Alcorta Esquina Gelly",
      "lat": -34.7213,
      "lng": -58.79132,
      "city": "Mariano Acosta",
      "province": "Buenos Aires"
    },
    "distance_km": 0.291124544947764,
    "pedidos_en_direccion": 1,
    "total_pedidos_lider": 1
  },
  {
    "community_leader_id": "ceb3906ea9db4daeaa06c3d17788a624",
    "shop_name": "ceb3906ea9db4daeaa06c3d17788a624",
    "shop_address": "Resistencia 1047 ",
    "shop_lat": -34.68951739094449,
    "shop_lng": -58.39659329601785,
    "nearest_supermarket": {
      "id": "3997",
      "name": "Diarco",
      "address": "Av. Remedios de Escalada de San Martin 1228",
      "lat": -34.68702,
      "lng": -58.39755,
      "city": "Lanús",
      "province": "Buenos Aires"
    },
    "distance_km": 0.29114805841104235,
    "pedidos_en_direccion": 26,
    "total_pedidos_lider": 26
  },
  {
    "community_leader_id": "8448286499a040ee9d9dde57d83d5a66",
    "shop_name": "8448286499a040ee9d9dde57d83d5a66",
    "shop_address": "Coronel D Elia 2661 ",
    "shop_lat": -34.68271247913382,
    "shop_lng": -58.417117000402484,
    "nearest_supermarket": {
      "id": "35046",
      "name": "Supermercados DIA",
      "address": "Viamonte2974",
      "lat": -34.68261,
      "lng": -58.42031,
      "city": "Valentín Alsina",
      "province": "Buenos Aires"
    },
    "distance_km": 0.29218186710872573,
    "pedidos_en_direccion": 10,
    "total_pedidos_lider": 10
  },
  {
    "community_leader_id": "e0bbaee0d07042c5b1131654b2290cdd",
    "shop_name": "e0bbaee0d07042c5b1131654b2290cdd",
    "shop_address": "Maestro Angel d elia 1784 ",
    "shop_lat": -34.53871680627636,
    "shop_lng": -58.71303097790978,
    "nearest_supermarket": {
      "id": "31359",
      "name": "Supermercados DIA",
      "address": "Angel Delia 1621",
      "lat": -34.54069,
      "lng": -58.710922,
      "city": "San Miguel (Buenos Aires)",
      "province": "Buenos Aires"
    },
    "distance_km": 0.2923280893686563,
    "pedidos_en_direccion": 8,
    "total_pedidos_lider": 8
  },
  {
    "community_leader_id": "e29d43946c4b4c96a64866a9ccf6db40",
    "shop_name": "e29d43946c4b4c96a64866a9ccf6db40",
    "shop_address": "J. Gorriti 1055",
    "shop_lat": -34.4211224230049,
    "shop_lng": -58.86536080264537,
    "nearest_supermarket": {
      "id": "31368",
      "name": "Supermercados DIA",
      "address": "Rt. 25 E/A.Thomas y Boedo 4150",
      "lat": -34.420918,
      "lng": -58.86855,
      "city": "Villa Rosa",
      "province": "Buenos Aires"
    },
    "distance_km": 0.29341215232913975,
    "pedidos_en_direccion": 2,
    "total_pedidos_lider": 2
  },
  {
    "community_leader_id": "5a89122efd3a4b2397e5df354e61a6ad",
    "shop_name": "5a89122efd3a4b2397e5df354e61a6ad",
    "shop_address": "Cnel. Pringles  3326",
    "shop_lat": -34.7191276082203,
    "shop_lng": -58.36128154281614,
    "nearest_supermarket": {
      "id": "26374",
      "name": "Supermercados DIA",
      "address": "Cl Eva Peron 3349",
      "lat": -34.72137,
      "lng": -58.362988,
      "city": "Lanús",
      "province": "Buenos Aires"
    },
    "distance_km": 0.2941024096511221,
    "pedidos_en_direccion": 305,
    "total_pedidos_lider": 305
  },
  {
    "community_leader_id": "f157532498ae49248ec58bd34b2074d9",
    "shop_name": "f157532498ae49248ec58bd34b2074d9",
    "shop_address": "Beethoven 4125 ",
    "shop_lat": -34.73532900060442,
    "shop_lng": -58.608465006443865,
    "nearest_supermarket": {
      "id": "35097",
      "name": "Supermercados DIA",
      "address": "Av Luro 3901",
      "lat": -34.73274,
      "lng": -58.60779,
      "city": "Gregorio de Laferrere",
      "province": "Buenos Aires"
    },
    "distance_km": 0.29441768924211775,
    "pedidos_en_direccion": 553,
    "total_pedidos_lider": 553
  },
  {
    "community_leader_id": "a293538be3184947a876751a05a62e76",
    "shop_name": "a293538be3184947a876751a05a62e76",
    "shop_address": "Domingo Martínez de Irala 1579",
    "shop_lat": -34.41629481579411,
    "shop_lng": -58.60342077565776,
    "nearest_supermarket": {
      "id": "37430",
      "name": "Supermercados DIA",
      "address": "Av Santa Maria de las Conchas 3276",
      "lat": -34.41409,
      "lng": -58.60522,
      "city": "Rincon De Milberg",
      "province": "Buenos Aires"
    },
    "distance_km": 0.29554313485749145,
    "pedidos_en_direccion": 8,
    "total_pedidos_lider": 8
  },
  {
    "community_leader_id": "af206613340e434cb3b8a3f2b2207f8d",
    "shop_name": "af206613340e434cb3b8a3f2b2207f8d",
    "shop_address": "Fraga 4431",
    "shop_lat": -34.52274259785122,
    "shop_lng": -58.74304884066734,
    "nearest_supermarket": {
      "id": "37438",
      "name": "Supermercados DIA",
      "address": "Avenida Presidente Peron 4279",
      "lat": -34.52215,
      "lng": -58.7399,
      "city": "José C. Paz",
      "province": "Buenos Aires"
    },
    "distance_km": 0.2959078254228019,
    "pedidos_en_direccion": 1,
    "total_pedidos_lider": 1
  },
  {
    "community_leader_id": "d2b8da8f3f9f41269e04173d7f80d473",
    "shop_name": "d2b8da8f3f9f41269e04173d7f80d473",
    "shop_address": "Billinghurst 290   2°A",
    "shop_lat": -34.60723605984693,
    "shop_lng": -58.41635412309876,
    "nearest_supermarket": {
      "id": "3799",
      "name": "Supermayorista Vital",
      "address": "Gallo Nº149, Abasto",
      "lat": -34.60679,
      "lng": -58.41315,
      "city": "Buenos Aires",
      "province": "CABA"
    },
    "distance_km": 0.2974091803261082,
    "pedidos_en_direccion": 55,
    "total_pedidos_lider": 783
  },
  {
    "community_leader_id": "d2b8da8f3f9f41269e04173d7f80d473",
    "shop_name": "d2b8da8f3f9f41269e04173d7f80d473",
    "shop_address": "Billinghurst  290 ",
    "shop_lat": -34.60723605984693,
    "shop_lng": -58.41635412309876,
    "nearest_supermarket": {
      "id": "3799",
      "name": "Supermayorista Vital",
      "address": "Gallo Nº149, Abasto",
      "lat": -34.60679,
      "lng": -58.41315,
      "city": "Buenos Aires",
      "province": "CABA"
    },
    "distance_km": 0.2974091803261082,
    "pedidos_en_direccion": 728,
    "total_pedidos_lider": 783
  },
  {
    "community_leader_id": "182ac6f3522842c6b161ac4b8b5a77f0",
    "shop_name": "182ac6f3522842c6b161ac4b8b5a77f0",
    "shop_address": "Antequera 5326 ",
    "shop_lat": -34.763396113205204,
    "shop_lng": -58.62236555521471,
    "nearest_supermarket": {
      "id": "32393",
      "name": "Changomas",
      "address": "Ruta 3 n° 14446, La Matan",
      "lat": -34.76318,
      "lng": -58.61912,
      "city": "González Catán",
      "province": "Buenos Aires"
    },
    "distance_km": 0.29744815471657904,
    "pedidos_en_direccion": 5,
    "total_pedidos_lider": 5
  },
  {
    "community_leader_id": "6b4e2f37f3b74c5f90c1ea76234b64ab",
    "shop_name": "6b4e2f37f3b74c5f90c1ea76234b64ab",
    "shop_address": "Mendoza 2562 ",
    "shop_lat": -34.68044479404577,
    "shop_lng": -58.55904422077873,
    "nearest_supermarket": {
      "id": "37440",
      "name": "Diarco",
      "address": "Almafuerte 3464",
      "lat": -34.68069,
      "lng": -58.555786,
      "city": "La Matanza",
      "province": "Buenos Aires"
    },
    "distance_km": 0.2991757953822733,
    "pedidos_en_direccion": 5,
    "total_pedidos_lider": 5
  },
  {
    "community_leader_id": "9d796b0c1cc146b9bb98eadc38124084",
    "shop_name": "9d796b0c1cc146b9bb98eadc38124084",
    "shop_address": "Pasaje Juan Esnaola  931",
    "shop_lat": -34.656288118799864,
    "shop_lng": -58.62187878103783,
    "nearest_supermarket": {
      "id": "41028",
      "name": "Disco",
      "address": "Garcia Silva Intendente 855 - B1708Dyo - Moron - Buenos Aires",
      "lat": -34.653748,
      "lng": -58.623177,
      "city": "Buenos Aires",
      "province": ""
    },
    "distance_km": 0.30639438814141096,
    "pedidos_en_direccion": 7,
    "total_pedidos_lider": 78
  },
  {
    "community_leader_id": "185e2203d6c04dc69ee08ea3f46c09cf",
    "shop_name": "185e2203d6c04dc69ee08ea3f46c09cf",
    "shop_address": "Beethoven 5762 ",
    "shop_lat": -34.748366210633016,
    "shop_lng": -58.59195813695325,
    "nearest_supermarket": {
      "id": "26375",
      "name": "Supermercados DIA",
      "address": "Cl Magnasco 3147",
      "lat": -34.74806,
      "lng": -58.58861,
      "city": "Gregorio de Laferrere",
      "province": "Buenos Aires"
    },
    "distance_km": 0.30779147374536975,
    "pedidos_en_direccion": 5,
    "total_pedidos_lider": 5
  },
  {
    "community_leader_id": "8b735477b1514b8cad31dd5ead73c726",
    "shop_name": "8b735477b1514b8cad31dd5ead73c726",
    "shop_address": "Castelar 2437 ",
    "shop_lat": -34.53321902000945,
    "shop_lng": -58.71963425364291,
    "nearest_supermarket": {
      "id": "31360",
      "name": "Supermercados DIA",
      "address": "Av.Primera Junta 952",
      "lat": -34.531445,
      "lng": -58.722214,
      "city": "San Miguel (Buenos Aires)",
      "province": "Buenos Aires"
    },
    "distance_km": 0.3078246640466323,
    "pedidos_en_direccion": 20,
    "total_pedidos_lider": 20
  },
  {
    "community_leader_id": "51d1f97538554727be7103733f5017f9",
    "shop_name": "51d1f97538554727be7103733f5017f9",
    "shop_address": "Juan José Castelli  1045",
    "shop_lat": -34.75167270308491,
    "shop_lng": -58.41037044168924,
    "nearest_supermarket": {
      "id": "4497",
      "name": "Carrefour",
      "address": "Las Heras 1163",
      "lat": -34.74899,
      "lng": -58.41128,
      "city": "Lomas de Zamora",
      "province": "Buenos Aires"
    },
    "distance_km": 0.3096614437528462,
    "pedidos_en_direccion": 26,
    "total_pedidos_lider": 26
  },
  {
    "community_leader_id": "8fe0b1631b214168a3587a4853295cff",
    "shop_name": "8fe0b1631b214168a3587a4853295cff",
    "shop_address": "Junín 1155 ",
    "shop_lat": -34.689928072354576,
    "shop_lng": -58.501476134055885,
    "nearest_supermarket": {
      "id": "425",
      "name": "Supermercados Vea",
      "address": "Av. Velez Sarfield 567",
      "lat": -34.69257,
      "lng": -58.50036,
      "city": "Tapiales",
      "province": "Buenos Aires"
    },
    "distance_km": 0.31098801151643435,
    "pedidos_en_direccion": 60,
    "total_pedidos_lider": 60
  },
  {
    "community_leader_id": "413a04de6b264e0a94e704b8a28ff789",
    "shop_name": "413a04de6b264e0a94e704b8a28ff789",
    "shop_address": "Av. Soldado de la Frontera  4987",
    "shop_lat": -34.683107409759614,
    "shop_lng": -58.46600812445544,
    "nearest_supermarket": {
      "id": "25690",
      "name": "Supermercados DIA",
      "address": "Fernandez de la Cruz5583",
      "lat": -34.68097,
      "lng": -58.46822,
      "city": "Floresta Oeste",
      "province": "Buenos Aires"
    },
    "distance_km": 0.31207617416313493,
    "pedidos_en_direccion": 91,
    "total_pedidos_lider": 91
  },